[
  {
    "id": "2991153",
    "name": "Muret",
    "coordinates": {
      "lon": 1.32541,
      "lat": 43.45998
    }
  },
  {
    "id": "2974591",
    "name": "Sigean",
    "coordinates": {
      "lon": 2.97834,
      "lat": 43.0279
    }
  },
  {
    "id": "2976879",
    "name": "Saint-Sulpice-la-Pointe",
    "coordinates": {
      "lon": 1.68511,
      "lat": 43.775
    }
  },
  {
    "id": "2977636",
    "name": "Saint-Pé-de-Bigorre",
    "coordinates": {
      "lon": -0.15988,
      "lat": 43.10357
    }
  },
  {
    "id": "2978369",
    "name": "Saint-Martin-de-Londres",
    "coordinates": {
      "lon": 3.73117,
      "lat": 43.79127
    }
  },
  {
    "id": "2979030",
    "name": "Saint-Just",
    "coordinates": {
      "lon": 4.11472,
      "lat": 43.65806
    }
  },
  {
    "id": "2982851",
    "name": "Roquemaure",
    "coordinates": {
      "lon": 4.77797,
      "lat": 44.05158
    }
  },
  {
    "id": "2983591",
    "name": "Rieux-Volvestre",
    "coordinates": {
      "lon": 1.1964,
      "lat": 43.25784
    }
  },
  {
    "id": "2983736",
    "name": "Ria-Sirach",
    "coordinates": {
      "lon": 2.4,
      "lat": 42.61667
    }
  },
  {
    "id": "2983900",
    "name": "Restinclières",
    "coordinates": {
      "lon": 4.03738,
      "lat": 43.72322
    }
  },
  {
    "id": "2986109",
    "name": "Pont-Saint-Esprit",
    "coordinates": {
      "lon": 4.6478,
      "lat": 44.25656
    }
  },
  {
    "id": "2986375",
    "name": "Pompignan",
    "coordinates": {
      "lon": 1.31209,
      "lat": 43.81768
    }
  },
  {
    "id": "2987180",
    "name": "Pignan",
    "coordinates": {
      "lon": 3.75853,
      "lat": 43.58436
    }
  },
  {
    "id": "2990284",
    "name": "Nogaro",
    "coordinates": {
      "lon": -0.03385,
      "lat": 43.75821
    }
  },
  {
    "id": "2993038",
    "name": "Montans",
    "coordinates": {
      "lon": 1.88568,
      "lat": 43.867
    }
  },
  {
    "id": "2993228",
    "name": "Mons",
    "coordinates": {
      "lon": 4.17185,
      "lat": 44.11563
    }
  },
  {
    "id": "2994870",
    "name": "Mazères",
    "coordinates": {
      "lon": 1.67816,
      "lat": 43.25174
    }
  },
  {
    "id": "3005657",
    "name": "Lavernose-Lacasse",
    "coordinates": {
      "lon": 1.26205,
      "lat": 43.397
    }
  },
  {
    "id": "3011288",
    "name": "Labastide-Beauvoir",
    "coordinates": {
      "lon": 1.66533,
      "lat": 43.48166
    }
  },
  {
    "id": "3024231",
    "name": "Colombiès",
    "coordinates": {
      "lon": 2.33673,
      "lat": 44.3443
    }
  },
  {
    "id": "3028092",
    "name": "Caylus",
    "coordinates": {
      "lon": 1.77105,
      "lat": 44.23646
    }
  },
  {
    "id": "3031949",
    "name": "Boisseron",
    "coordinates": {
      "lon": 4.0797,
      "lat": 43.75795
    }
  },
  {
    "id": "3034142",
    "name": "Beaumont-sur-Lèze",
    "coordinates": {
      "lon": 1.35733,
      "lat": 43.38056
    }
  },
  {
    "id": "3035388",
    "name": "Baho",
    "coordinates": {
      "lon": 2.8222,
      "lat": 42.70084
    }
  },
  {
    "id": "3036287",
    "name": "Aucamville",
    "coordinates": {
      "lon": 1.42766,
      "lat": 43.67053
    }
  },
  {
    "id": "2971258",
    "name": "Uzès",
    "coordinates": {
      "lon": 4.41973,
      "lat": 44.01251
    }
  },
  {
    "id": "2972010",
    "name": "Trèbes",
    "coordinates": {
      "lon": 2.44175,
      "lat": 43.21028
    }
  },
  {
    "id": "2972315",
    "name": "Toulouse",
    "coordinates": {
      "lon": 1.44367,
      "lat": 43.60426
    }
  },
  {
    "id": "2975492",
    "name": "Saze",
    "coordinates": {
      "lon": 4.68163,
      "lat": 43.94126
    }
  },
  {
    "id": "2979328",
    "name": "Saint-Jean-de-Fos",
    "coordinates": {
      "lon": 3.55132,
      "lat": 43.70065
    }
  },
  {
    "id": "2981073",
    "name": "Saint-Clément-de-Rivière",
    "coordinates": {
      "lon": 3.83333,
      "lat": 43.68333
    }
  },
  {
    "id": "2981863",
    "name": "Saint-Alexandre",
    "coordinates": {
      "lon": 4.62153,
      "lat": 44.22787
    }
  },
  {
    "id": "2983929",
    "name": "Réquista",
    "coordinates": {
      "lon": 2.53515,
      "lat": 44.03276
    }
  },
  {
    "id": "2984879",
    "name": "Quarante",
    "coordinates": {
      "lon": 2.96265,
      "lat": 43.34665
    }
  },
  {
    "id": "2985738",
    "name": "Poussan",
    "coordinates": {
      "lon": 3.67083,
      "lat": 43.48944
    }
  },
  {
    "id": "2986204",
    "name": "Ponteilla",
    "coordinates": {
      "lon": 2.81427,
      "lat": 42.62659
    }
  },
  {
    "id": "2992526",
    "name": "Montgiscard",
    "coordinates": {
      "lon": 1.57295,
      "lat": 43.45801
    }
  },
  {
    "id": "2992926",
    "name": "Montberon",
    "coordinates": {
      "lon": 1.4801,
      "lat": 43.71602
    }
  },
  {
    "id": "2995055",
    "name": "Maureilhan",
    "coordinates": {
      "lon": 3.12011,
      "lat": 43.3576
    }
  },
  {
    "id": "2995438",
    "name": "Marssac-sur-Tarn",
    "coordinates": {
      "lon": 2.02921,
      "lat": 43.91768
    }
  },
  {
    "id": "2997936",
    "name": "Lodève",
    "coordinates": {
      "lon": 3.31959,
      "lat": 43.73178
    }
  },
  {
    "id": "2998644",
    "name": "Lézignan-Corbières",
    "coordinates": {
      "lon": 2.75745,
      "lat": 43.20085
    }
  },
  {
    "id": "2999981",
    "name": "Lespignan",
    "coordinates": {
      "lon": 3.17193,
      "lat": 43.27364
    }
  },
  {
    "id": "3000444",
    "name": "Les Mages",
    "coordinates": {
      "lon": 4.16633,
      "lat": 44.22875
    }
  },
  {
    "id": "3002541",
    "name": "Le Pouget",
    "coordinates": {
      "lon": 3.5245,
      "lat": 43.59197
    }
  },
  {
    "id": "3005839",
    "name": "Lavalette",
    "coordinates": {
      "lon": 2.26825,
      "lat": 43.18428
    }
  },
  {
    "id": "3007535",
    "name": "Lanta",
    "coordinates": {
      "lon": 1.6545,
      "lat": 43.56076
    }
  },
  {
    "id": "3011313",
    "name": "Labarthe-Rivière",
    "coordinates": {
      "lon": 0.67178,
      "lat": 43.08026
    }
  },
  {
    "id": "3016257",
    "name": "Gerde",
    "coordinates": {
      "lon": 0.16698,
      "lat": 43.05528
    }
  },
  {
    "id": "3023606",
    "name": "Cornebarrieu",
    "coordinates": {
      "lon": 1.32588,
      "lat": 43.64967
    }
  },
  {
    "id": "3024932",
    "name": "Cintegabelle",
    "coordinates": {
      "lon": 1.53146,
      "lat": 43.31386
    }
  },
  {
    "id": "3028641",
    "name": "Carcassonne",
    "coordinates": {
      "lon": 2.34863,
      "lat": 43.21649
    }
  },
  {
    "id": "3028739",
    "name": "Capdenac-Gare",
    "coordinates": {
      "lon": 2.08079,
      "lat": 44.57567
    }
  },
  {
    "id": "3029108",
    "name": "Calmont",
    "coordinates": {
      "lon": 1.63308,
      "lat": 43.28655
    }
  },
  {
    "id": "3030127",
    "name": "Briatexte",
    "coordinates": {
      "lon": 1.90879,
      "lat": 43.75237
    }
  },
  {
    "id": "3036893",
    "name": "Armissan",
    "coordinates": {
      "lon": 3.0966,
      "lat": 43.18778
    }
  },
  {
    "id": "2969400",
    "name": "Vic-Fezensac",
    "coordinates": {
      "lon": 0.30319,
      "lat": 43.75873
    }
  },
  {
    "id": "2968654",
    "name": "Villemolaque",
    "coordinates": {
      "lon": 2.83815,
      "lat": 42.58899
    }
  },
  {
    "id": "2969556",
    "name": "Vestric-et-Candiac",
    "coordinates": {
      "lon": 4.25861,
      "lat": 43.74067
    }
  },
  {
    "id": "2969817",
    "name": "Vernet-les-Bains",
    "coordinates": {
      "lon": 2.38687,
      "lat": 42.54946
    }
  },
  {
    "id": "2971046",
    "name": "Valence-d'Albigeois",
    "coordinates": {
      "lon": 2.40425,
      "lat": 44.01957
    }
  },
  {
    "id": "2974648",
    "name": "Seysses",
    "coordinates": {
      "lon": 1.31081,
      "lat": 43.49801
    }
  },
  {
    "id": "2974879",
    "name": "Sernhac",
    "coordinates": {
      "lon": 4.55201,
      "lat": 43.91149
    }
  },
  {
    "id": "2975659",
    "name": "Sauveterre",
    "coordinates": {
      "lon": 4.79347,
      "lat": 44.02282
    }
  },
  {
    "id": "2976653",
    "name": "Saint-Victor-la-Coste",
    "coordinates": {
      "lon": 4.64221,
      "lat": 44.06197
    }
  },
  {
    "id": "2977049",
    "name": "Saint-Sauveur",
    "coordinates": {
      "lon": 1.39969,
      "lat": 43.74891
    }
  },
  {
    "id": "2979475",
    "name": "Saint-Hippolyte-du-Fort",
    "coordinates": {
      "lon": 3.85597,
      "lat": 43.96562
    }
  },
  {
    "id": "2981193",
    "name": "Saint-Chély-d'Apcher",
    "coordinates": {
      "lon": 3.27567,
      "lat": 44.80317
    }
  },
  {
    "id": "2982064",
    "name": "Sabran",
    "coordinates": {
      "lon": 4.54775,
      "lat": 44.15099
    }
  },
  {
    "id": "2988259",
    "name": "Péchabou",
    "coordinates": {
      "lon": 1.50769,
      "lat": 43.50132
    }
  },
  {
    "id": "2989193",
    "name": "Ortaffa",
    "coordinates": {
      "lon": 2.92502,
      "lat": 42.58025
    }
  },
  {
    "id": "2990344",
    "name": "Nissan-lez-Enserune",
    "coordinates": {
      "lon": 3.128,
      "lat": 43.28839
    }
  },
  {
    "id": "2992327",
    "name": "Montlaur",
    "coordinates": {
      "lon": 1.56807,
      "lat": 43.48935
    }
  },
  {
    "id": "2996089",
    "name": "Maraussan",
    "coordinates": {
      "lon": 3.15777,
      "lat": 43.36686
    }
  },
  {
    "id": "2998622",
    "name": "Lherm",
    "coordinates": {
      "lon": 1.22157,
      "lat": 43.4297
    }
  },
  {
    "id": "3003918",
    "name": "Le Grau-du-Roi",
    "coordinates": {
      "lon": 4.13559,
      "lat": 43.53881
    }
  },
  {
    "id": "3006543",
    "name": "Lasalle",
    "coordinates": {
      "lon": 3.85244,
      "lat": 44.04573
    }
  },
  {
    "id": "3016023",
    "name": "Gimont",
    "coordinates": {
      "lon": 0.8764,
      "lat": 43.62638
    }
  },
  {
    "id": "3016822",
    "name": "Gaillac-Toulza",
    "coordinates": {
      "lon": 1.47118,
      "lat": 43.25472
    }
  },
  {
    "id": "3020916",
    "name": "Dourgne",
    "coordinates": {
      "lon": 2.13841,
      "lat": 43.48517
    }
  },
  {
    "id": "3032497",
    "name": "Bizanet",
    "coordinates": {
      "lon": 2.87046,
      "lat": 43.16498
    }
  },
  {
    "id": "3035985",
    "name": "Aussonne",
    "coordinates": {
      "lon": 1.31926,
      "lat": 43.68392
    }
  },
  {
    "id": "3036323",
    "name": "Aubin",
    "coordinates": {
      "lon": 2.24439,
      "lat": 44.52809
    }
  },
  {
    "id": "3036935",
    "name": "Arles",
    "coordinates": {
      "lon": 2.63457,
      "lat": 42.45654
    }
  },
  {
    "id": "3037068",
    "name": "Argeles",
    "coordinates": {
      "lon": 3.02253,
      "lat": 42.54714
    }
  },
  {
    "id": "3038261",
    "name": "Albi",
    "coordinates": {
      "lon": 2.148,
      "lat": 43.9298
    }
  },
  {
    "id": "6615523",
    "name": "Le Sequestre",
    "coordinates": {
      "lon": 2.11804,
      "lat": 43.91076
    }
  },
  {
    "id": "2968062",
    "name": "Vinça",
    "coordinates": {
      "lon": 2.52784,
      "lat": 42.64456
    }
  },
  {
    "id": "2968549",
    "name": "Villeneuve-la-Rivière",
    "coordinates": {
      "lon": 2.8014,
      "lat": 42.69376
    }
  },
  {
    "id": "2969320",
    "name": "Vieille-Toulouse",
    "coordinates": {
      "lon": 1.4423,
      "lat": 43.52366
    }
  },
  {
    "id": "2969960",
    "name": "Verdun-sur-Garonne",
    "coordinates": {
      "lon": 1.23425,
      "lat": 43.85446
    }
  },
  {
    "id": "2971176",
    "name": "Vailhauquès",
    "coordinates": {
      "lon": 3.71828,
      "lat": 43.67204
    }
  },
  {
    "id": "2973264",
    "name": "Tavel",
    "coordinates": {
      "lon": 4.69989,
      "lat": 44.01177
    }
  },
  {
    "id": "2983393",
    "name": "Rivesaltes",
    "coordinates": {
      "lon": 2.87378,
      "lat": 42.76929
    }
  },
  {
    "id": "2985133",
    "name": "Puichéric",
    "coordinates": {
      "lon": 2.62404,
      "lat": 43.22405
    }
  },
  {
    "id": "2985710",
    "name": "Pouzac",
    "coordinates": {
      "lon": 0.13444,
      "lat": 43.08606
    }
  },
  {
    "id": "2989571",
    "name": "Olonzac",
    "coordinates": {
      "lon": 2.7303,
      "lat": 43.28383
    }
  },
  {
    "id": "2993889",
    "name": "Milhaud",
    "coordinates": {
      "lon": 4.30737,
      "lat": 43.78986
    }
  },
  {
    "id": "2994902",
    "name": "Mazamet",
    "coordinates": {
      "lon": 2.3736,
      "lat": 43.49275
    }
  },
  {
    "id": "2995782",
    "name": "Marguerittes",
    "coordinates": {
      "lon": 4.44517,
      "lat": 43.8596
    }
  },
  {
    "id": "3005712",
    "name": "Lavelanet",
    "coordinates": {
      "lon": 1.84844,
      "lat": 42.93267
    }
  },
  {
    "id": "3006531",
    "name": "La Salvetat-Saint-Gilles",
    "coordinates": {
      "lon": 1.27192,
      "lat": 43.57622
    }
  },
  {
    "id": "3006711",
    "name": "Laroque",
    "coordinates": {
      "lon": 3.72436,
      "lat": 43.92249
    }
  },
  {
    "id": "3018238",
    "name": "Florac",
    "coordinates": {
      "lon": 3.59276,
      "lat": 44.32626
    }
  },
  {
    "id": "3024057",
    "name": "Comps",
    "coordinates": {
      "lon": 4.60567,
      "lat": 43.85304
    }
  },
  {
    "id": "3024223",
    "name": "Colomiers",
    "coordinates": {
      "lon": 1.33467,
      "lat": 43.61058
    }
  },
  {
    "id": "3029338",
    "name": "Buzet-sur-Tarn",
    "coordinates": {
      "lon": 1.63301,
      "lat": 43.77977
    }
  },
  {
    "id": "3031144",
    "name": "Bouloc",
    "coordinates": {
      "lon": 1.40522,
      "lat": 43.78163
    }
  },
  {
    "id": "3036548",
    "name": "Aspet",
    "coordinates": {
      "lon": 0.80088,
      "lat": 43.01487
    }
  },
  {
    "id": "3037067",
    "name": "Argeliers",
    "coordinates": {
      "lon": 2.91016,
      "lat": 43.3118
    }
  },
  {
    "id": "3037875",
    "name": "els Banys d'Arles",
    "coordinates": {
      "lon": 2.66916,
      "lat": 42.47289
    }
  },
  {
    "id": "6615509",
    "name": "Castelmaurou",
    "coordinates": {
      "lon": 1.53222,
      "lat": 43.67778
    }
  },
  {
    "id": "2969684",
    "name": "Vers-Pont-du-Gard",
    "coordinates": {
      "lon": 4.53333,
      "lat": 43.96667
    }
  },
  {
    "id": "2971782",
    "name": "Tresques",
    "coordinates": {
      "lon": 4.5868,
      "lat": 44.10744
    }
  },
  {
    "id": "2974091",
    "name": "Soues",
    "coordinates": {
      "lon": 0.0991,
      "lat": 43.20687
    }
  },
  {
    "id": "2975741",
    "name": "Saussan",
    "coordinates": {
      "lon": 3.775,
      "lat": 43.5722
    }
  },
  {
    "id": "2976837",
    "name": "Saint-Sulpice-sur-Lèze",
    "coordinates": {
      "lon": 1.32227,
      "lat": 43.32888
    }
  },
  {
    "id": "2979205",
    "name": "St. Jean-Pla-de-Corts",
    "coordinates": {
      "lon": 2.79091,
      "lat": 42.51069
    }
  },
  {
    "id": "2980411",
    "name": "Sainte-Marie-Plage",
    "coordinates": {
      "lon": 3.03751,
      "lat": 42.72498
    }
  },
  {
    "id": "2981127",
    "name": "Saint-Christophe-Vallon",
    "coordinates": {
      "lon": 2.41184,
      "lat": 44.47072
    }
  },
  {
    "id": "2985778",
    "name": "Poulx",
    "coordinates": {
      "lon": 4.417,
      "lat": 43.90891
    }
  },
  {
    "id": "2987103",
    "name": "Pinet",
    "coordinates": {
      "lon": 3.51,
      "lat": 43.40556
    }
  },
  {
    "id": "2987376",
    "name": "Pibrac",
    "coordinates": {
      "lon": 1.2854,
      "lat": 43.62042
    }
  },
  {
    "id": "2988345",
    "name": "Paulhac",
    "coordinates": {
      "lon": 1.55667,
      "lat": 43.75639
    }
  },
  {
    "id": "2992119",
    "name": "Montréal",
    "coordinates": {
      "lon": 2.14122,
      "lat": 43.1998
    }
  },
  {
    "id": "2995146",
    "name": "Maubourguet",
    "coordinates": {
      "lon": 0.03473,
      "lat": 43.46834
    }
  },
  {
    "id": "2995456",
    "name": "Marsillargues",
    "coordinates": {
      "lon": 4.1767,
      "lat": 43.66478
    }
  },
  {
    "id": "2997104",
    "name": "L'Union",
    "coordinates": {
      "lon": 1.48264,
      "lat": 43.66042
    }
  },
  {
    "id": "2997775",
    "name": "Longages",
    "coordinates": {
      "lon": 1.2397,
      "lat": 43.35531
    }
  },
  {
    "id": "3004434",
    "name": "Le Crès",
    "coordinates": {
      "lon": 3.9388,
      "lat": 43.64763
    }
  },
  {
    "id": "3006530",
    "name": "La Salvetat-sur-Agout",
    "coordinates": {
      "lon": 2.70268,
      "lat": 43.6005
    }
  },
  {
    "id": "3006701",
    "name": "Laroque-des-Albères",
    "coordinates": {
      "lon": 2.93374,
      "lat": 42.5213
    }
  },
  {
    "id": "3007541",
    "name": "Lansargues",
    "coordinates": {
      "lon": 4.07248,
      "lat": 43.65155
    }
  },
  {
    "id": "3011252",
    "name": "Labastide-Rouairoux",
    "coordinates": {
      "lon": 2.63929,
      "lat": 43.4763
    }
  },
  {
    "id": "3018296",
    "name": "Fleury",
    "coordinates": {
      "lon": 3.13745,
      "lat": 43.23095
    }
  },
  {
    "id": "3019157",
    "name": "Fabrezan",
    "coordinates": {
      "lon": 2.69724,
      "lat": 43.13618
    }
  },
  {
    "id": "3024746",
    "name": "Clarensac",
    "coordinates": {
      "lon": 4.22047,
      "lat": 43.82536
    }
  },
  {
    "id": "3028409",
    "name": "Castanet-Tolosan",
    "coordinates": {
      "lon": 1.4986,
      "lat": 43.5159
    }
  },
  {
    "id": "3028832",
    "name": "Canet-en-Roussillon",
    "coordinates": {
      "lon": 3.01667,
      "lat": 42.7
    }
  },
  {
    "id": "3030772",
    "name": "Bout-du-Pont-de-Larn",
    "coordinates": {
      "lon": 2.40417,
      "lat": 43.50072
    }
  },
  {
    "id": "3033056",
    "name": "Bessières",
    "coordinates": {
      "lon": 1.60624,
      "lat": 43.79861
    }
  },
  {
    "id": "3034274",
    "name": "Beaulieu",
    "coordinates": {
      "lon": 4.02194,
      "lat": 43.72861
    }
  },
  {
    "id": "3036604",
    "name": "Arzens",
    "coordinates": {
      "lon": 2.20962,
      "lat": 43.19947
    }
  },
  {
    "id": "6545038",
    "name": "La Palme",
    "coordinates": {
      "lon": 2.99243,
      "lat": 42.97518
    }
  },
  {
    "id": "2968274",
    "name": "Villetelle",
    "coordinates": {
      "lon": 4.13666,
      "lat": 43.73194
    }
  },
  {
    "id": "2968566",
    "name": "Villeneuve-de-Rivière",
    "coordinates": {
      "lon": 0.66626,
      "lat": 43.12082
    }
  },
  {
    "id": "2968758",
    "name": "Villefranche-de-Lauragais",
    "coordinates": {
      "lon": 1.71697,
      "lat": 43.4004
    }
  },
  {
    "id": "2969401",
    "name": "Vic-en-Bigorre",
    "coordinates": {
      "lon": 0.05471,
      "lat": 43.38682
    }
  },
  {
    "id": "2973033",
    "name": "Teyran",
    "coordinates": {
      "lon": 3.92889,
      "lat": 43.68528
    }
  },
  {
    "id": "2974699",
    "name": "Sévérac-le-Château",
    "coordinates": {
      "lon": 3.07123,
      "lat": 44.32196
    }
  },
  {
    "id": "2978627",
    "name": "Saint-Mamert-du-Gard",
    "coordinates": {
      "lon": 4.18876,
      "lat": 43.88761
    }
  },
  {
    "id": "2980003",
    "name": "Saint-Geniès-de-Comolas",
    "coordinates": {
      "lon": 4.72207,
      "lat": 44.06471
    }
  },
  {
    "id": "2980004",
    "name": "Saint-Geniès-Bellevue",
    "coordinates": {
      "lon": 1.4857,
      "lat": 43.68342
    }
  },
  {
    "id": "2981433",
    "name": "Saint-Bauzille-de-Putois",
    "coordinates": {
      "lon": 3.73618,
      "lat": 43.89551
    }
  },
  {
    "id": "2983833",
    "name": "Revel",
    "coordinates": {
      "lon": 2.00437,
      "lat": 43.4589
    }
  },
  {
    "id": "2986001",
    "name": "Portel-des-Corbières",
    "coordinates": {
      "lon": 2.91667,
      "lat": 43.05
    }
  },
  {
    "id": "2992102",
    "name": "Montréjeau",
    "coordinates": {
      "lon": 0.56839,
      "lat": 43.08579
    }
  },
  {
    "id": "2993088",
    "name": "Montaigu-de-Quercy",
    "coordinates": {
      "lon": 1.01793,
      "lat": 44.3397
    }
  },
  {
    "id": "2994043",
    "name": "Mèze",
    "coordinates": {
      "lon": 3.60505,
      "lat": 43.42747
    }
  },
  {
    "id": "2994979",
    "name": "Mauvezin",
    "coordinates": {
      "lon": 0.87784,
      "lat": 43.73034
    }
  },
  {
    "id": "2997395",
    "name": "Lourdes",
    "coordinates": {
      "lon": -0.04611,
      "lat": 43.09461
    }
  },
  {
    "id": "3004381",
    "name": "Lectoure",
    "coordinates": {
      "lon": 0.62116,
      "lat": 43.93431
    }
  },
  {
    "id": "3005979",
    "name": "Laurens",
    "coordinates": {
      "lon": 3.19654,
      "lat": 43.52263
    }
  },
  {
    "id": "3006699",
    "name": "Laroque-d'Olmes",
    "coordinates": {
      "lon": 1.87098,
      "lat": 42.97033
    }
  },
  {
    "id": "3010619",
    "name": "La Canourgue",
    "coordinates": {
      "lon": 3.21439,
      "lat": 44.43252
    }
  },
  {
    "id": "3010720",
    "name": "Labruguière",
    "coordinates": {
      "lon": 2.2627,
      "lat": 43.53862
    }
  },
  {
    "id": "3019160",
    "name": "Fabrègues",
    "coordinates": {
      "lon": 3.77611,
      "lat": 43.55131
    }
  },
  {
    "id": "3022694",
    "name": "Cransac",
    "coordinates": {
      "lon": 2.2837,
      "lat": 44.52411
    }
  },
  {
    "id": "3023600",
    "name": "Corneilla-del-Vercol",
    "coordinates": {
      "lon": 2.95171,
      "lat": 42.62454
    }
  },
  {
    "id": "3024200",
    "name": "Combaillaux",
    "coordinates": {
      "lon": 3.76611,
      "lat": 43.67666
    }
  },
  {
    "id": "3033099",
    "name": "Bessan",
    "coordinates": {
      "lon": 3.4219,
      "lat": 43.36138
    }
  },
  {
    "id": "2968631",
    "name": "Villemoustaussou",
    "coordinates": {
      "lon": 2.36397,
      "lat": 43.25251
    }
  },
  {
    "id": "2973701",
    "name": "Sumène",
    "coordinates": {
      "lon": 3.71563,
      "lat": 43.98091
    }
  },
  {
    "id": "2974188",
    "name": "Sorgues",
    "coordinates": {
      "lon": 4.87381,
      "lat": 44.01023
    }
  },
  {
    "id": "2977327",
    "name": "Saint-Privat-des-Vieux",
    "coordinates": {
      "lon": 4.12885,
      "lat": 44.14435
    }
  },
  {
    "id": "2977925",
    "name": "Saint-Nazaire",
    "coordinates": {
      "lon": 4.62413,
      "lat": 44.19833
    }
  },
  {
    "id": "2978661",
    "name": "Saint-Lys",
    "coordinates": {
      "lon": 1.17745,
      "lat": 43.51436
    }
  },
  {
    "id": "2980554",
    "name": "Sainte-Geneviève-sur-Argence",
    "coordinates": {
      "lon": 2.7581,
      "lat": 44.80311
    }
  },
  {
    "id": "2980976",
    "name": "Saint-Cyprien-Plage",
    "coordinates": {
      "lon": 3.03333,
      "lat": 42.63229
    }
  },
  {
    "id": "2981204",
    "name": "Saint-Chaptes",
    "coordinates": {
      "lon": 4.27838,
      "lat": 43.97165
    }
  },
  {
    "id": "2981865",
    "name": "Saint-Alban-sur-Limagnole",
    "coordinates": {
      "lon": 3.3882,
      "lat": 44.78111
    }
  },
  {
    "id": "2985474",
    "name": "Preignan",
    "coordinates": {
      "lon": 0.62844,
      "lat": 43.71259
    }
  },
  {
    "id": "2990250",
    "name": "Nohic",
    "coordinates": {
      "lon": 1.43785,
      "lat": 43.89021
    }
  },
  {
    "id": "2991261",
    "name": "Moyrazès",
    "coordinates": {
      "lon": 2.4391,
      "lat": 44.34336
    }
  },
  {
    "id": "2992602",
    "name": "Montferrier-sur-Lez",
    "coordinates": {
      "lon": 3.85686,
      "lat": 43.66806
    }
  },
  {
    "id": "2993383",
    "name": "Monclar-de-Quercy",
    "coordinates": {
      "lon": 1.58457,
      "lat": 43.96643
    }
  },
  {
    "id": "2998409",
    "name": "Lignan-sur-Orb",
    "coordinates": {
      "lon": 3.16981,
      "lat": 43.38395
    }
  },
  {
    "id": "3003874",
    "name": "Léguevin",
    "coordinates": {
      "lon": 1.23236,
      "lat": 43.60028
    }
  },
  {
    "id": "3005915",
    "name": "Lauzerte",
    "coordinates": {
      "lon": 1.1378,
      "lat": 44.25577
    }
  },
  {
    "id": "3010558",
    "name": "La Cavalerie",
    "coordinates": {
      "lon": 3.1584,
      "lat": 44.00961
    }
  },
  {
    "id": "3012364",
    "name": "Jegun",
    "coordinates": {
      "lon": 0.45889,
      "lat": 43.7573
    }
  },
  {
    "id": "3015937",
    "name": "Giroussens",
    "coordinates": {
      "lon": 1.77556,
      "lat": 43.76221
    }
  },
  {
    "id": "3019843",
    "name": "Escalquens",
    "coordinates": {
      "lon": 1.56093,
      "lat": 43.51835
    }
  },
  {
    "id": "3021954",
    "name": "Cuxac-Cabardès",
    "coordinates": {
      "lon": 2.28324,
      "lat": 43.37081
    }
  },
  {
    "id": "3023883",
    "name": "Connaux",
    "coordinates": {
      "lon": 4.59374,
      "lat": 44.09127
    }
  },
  {
    "id": "3024759",
    "name": "Clapiers",
    "coordinates": {
      "lon": 3.88917,
      "lat": 43.65833
    }
  },
  {
    "id": "3028039",
    "name": "Cazouls-lès-Béziers",
    "coordinates": {
      "lon": 3.10114,
      "lat": 43.39236
    }
  },
  {
    "id": "3028341",
    "name": "Castelnau-Montratier",
    "coordinates": {
      "lon": 1.35302,
      "lat": 44.26872
    }
  },
  {
    "id": "3028723",
    "name": "Capdenac",
    "coordinates": {
      "lon": 2.06992,
      "lat": 44.58126
    }
  },
  {
    "id": "3033813",
    "name": "Belberaud",
    "coordinates": {
      "lon": 1.56907,
      "lat": 43.50768
    }
  },
  {
    "id": "3033913",
    "name": "Bédarieux",
    "coordinates": {
      "lon": 3.15892,
      "lat": 43.61602
    }
  },
  {
    "id": "3035970",
    "name": "Auterive",
    "coordinates": {
      "lon": 1.47464,
      "lat": 43.35079
    }
  },
  {
    "id": "2968564",
    "name": "Villeneuve-d'Olmes",
    "coordinates": {
      "lon": 1.82109,
      "lat": 42.90767
    }
  },
  {
    "id": "2969421",
    "name": "Vias",
    "coordinates": {
      "lon": 3.4185,
      "lat": 43.312
    }
  },
  {
    "id": "2977721",
    "name": "Saint-Pargoire",
    "coordinates": {
      "lon": 3.51972,
      "lat": 43.52847
    }
  },
  {
    "id": "2978199",
    "name": "Saint-Mathieu-de-Tréviers",
    "coordinates": {
      "lon": 3.85773,
      "lat": 43.76862
    }
  },
  {
    "id": "2979244",
    "name": "Saint-Jean-du-Gard",
    "coordinates": {
      "lon": 3.88584,
      "lat": 44.10505
    }
  },
  {
    "id": "2979933",
    "name": "Saint-Georges-de-Luzençon",
    "coordinates": {
      "lon": 2.98545,
      "lat": 44.06476
    }
  },
  {
    "id": "2983582",
    "name": "Rieux-Minervois",
    "coordinates": {
      "lon": 2.58691,
      "lat": 43.28221
    }
  },
  {
    "id": "2984037",
    "name": "Remoulins",
    "coordinates": {
      "lon": 4.56602,
      "lat": 43.93965
    }
  },
  {
    "id": "2987082",
    "name": "Pinsaguel",
    "coordinates": {
      "lon": 1.38831,
      "lat": 43.5104
    }
  },
  {
    "id": "2987936",
    "name": "Pérols",
    "coordinates": {
      "lon": 3.95034,
      "lat": 43.5647
    }
  },
  {
    "id": "2988251",
    "name": "Pechbonnieu",
    "coordinates": {
      "lon": 1.46654,
      "lat": 43.70403
    }
  },
  {
    "id": "2989253",
    "name": "Ornaisons",
    "coordinates": {
      "lon": 2.83724,
      "lat": 43.18093
    }
  },
  {
    "id": "2992153",
    "name": "Montpeyroux",
    "coordinates": {
      "lon": 3.50532,
      "lat": 43.69565
    }
  },
  {
    "id": "2993166",
    "name": "Montady",
    "coordinates": {
      "lon": 3.12725,
      "lat": 43.33539
    }
  },
  {
    "id": "2995990",
    "name": "Marciac",
    "coordinates": {
      "lon": 0.16102,
      "lat": 43.52404
    }
  },
  {
    "id": "2996823",
    "name": "Magalas",
    "coordinates": {
      "lon": 3.22249,
      "lat": 43.47158
    }
  },
  {
    "id": "2997116",
    "name": "Lunel",
    "coordinates": {
      "lon": 4.13611,
      "lat": 43.67778
    }
  },
  {
    "id": "2998264",
    "name": "Limoux",
    "coordinates": {
      "lon": 2.22173,
      "lat": 43.05487
    }
  },
  {
    "id": "2999976",
    "name": "Lespinasse",
    "coordinates": {
      "lon": 1.38462,
      "lat": 43.71206
    }
  },
  {
    "id": "3005943",
    "name": "Lautrec",
    "coordinates": {
      "lon": 2.13834,
      "lat": 43.7062
    }
  },
  {
    "id": "3007715",
    "name": "Langlade",
    "coordinates": {
      "lon": 4.24964,
      "lat": 43.80472
    }
  },
  {
    "id": "3008362",
    "name": "Lamagistère",
    "coordinates": {
      "lon": 0.82353,
      "lat": 44.12498
    }
  },
  {
    "id": "3009315",
    "name": "La Fouillade",
    "coordinates": {
      "lon": 2.04158,
      "lat": 44.23121
    }
  },
  {
    "id": "3011245",
    "name": "Labastidette",
    "coordinates": {
      "lon": 1.24586,
      "lat": 43.46106
    }
  },
  {
    "id": "3016824",
    "name": "Gaillac",
    "coordinates": {
      "lon": 1.89686,
      "lat": 43.9016
    }
  },
  {
    "id": "3026987",
    "name": "Chanac",
    "coordinates": {
      "lon": 3.34301,
      "lat": 44.46623
    }
  },
  {
    "id": "3029286",
    "name": "Cabrières",
    "coordinates": {
      "lon": 4.47189,
      "lat": 43.90445
    }
  },
  {
    "id": "3030485",
    "name": "Brax",
    "coordinates": {
      "lon": 1.23957,
      "lat": 43.61793
    }
  },
  {
    "id": "3034446",
    "name": "Bazet",
    "coordinates": {
      "lon": 0.07146,
      "lat": 43.29081
    }
  },
  {
    "id": "3035295",
    "name": "Baixas",
    "coordinates": {
      "lon": 2.80911,
      "lat": 42.75005
    }
  },
  {
    "id": "3035396",
    "name": "Bagnols-sur-Cèze",
    "coordinates": {
      "lon": 4.61974,
      "lat": 44.16259
    }
  },
  {
    "id": "3035418",
    "name": "Bagnères-de-Bigorre",
    "coordinates": {
      "lon": 0.14876,
      "lat": 43.06497
    }
  },
  {
    "id": "2974195",
    "name": "Sorèze",
    "coordinates": {
      "lon": 2.06683,
      "lat": 43.45292
    }
  },
  {
    "id": "2978325",
    "name": "Saint-Martin-de-Valgalgues",
    "coordinates": {
      "lon": 4.08203,
      "lat": 44.16308
    }
  },
  {
    "id": "2978975",
    "name": "Saint-Lary-Soulan",
    "coordinates": {
      "lon": 0.32238,
      "lat": 42.81713
    }
  },
  {
    "id": "2980002",
    "name": "Saint-Geniès-de-Malgoirès",
    "coordinates": {
      "lon": 4.21563,
      "lat": 43.94562
    }
  },
  {
    "id": "2980364",
    "name": "Sainte-Radegonde",
    "coordinates": {
      "lon": 2.6269,
      "lat": 44.33794
    }
  },
  {
    "id": "2981303",
    "name": "Saint-Brès",
    "coordinates": {
      "lon": 4.0293,
      "lat": 43.66731
    }
  },
  {
    "id": "2981925",
    "name": "Saint-Affrique",
    "coordinates": {
      "lon": 2.88915,
      "lat": 43.95575
    }
  },
  {
    "id": "2985982",
    "name": "Portet-sur-Garonne",
    "coordinates": {
      "lon": 1.40511,
      "lat": 43.52317
    }
  },
  {
    "id": "2987409",
    "name": "Pia",
    "coordinates": {
      "lon": 2.92043,
      "lat": 42.74475
    }
  },
  {
    "id": "2987441",
    "name": "Pézenas",
    "coordinates": {
      "lon": 3.42258,
      "lat": 43.45997
    }
  },
  {
    "id": "2988670",
    "name": "Pamiers",
    "coordinates": {
      "lon": 1.61079,
      "lat": 43.1165
    }
  },
  {
    "id": "2990294",
    "name": "Noé",
    "coordinates": {
      "lon": 1.27423,
      "lat": 43.35378
    }
  },
  {
    "id": "2991040",
    "name": "Nailloux",
    "coordinates": {
      "lon": 1.62292,
      "lat": 43.35611
    }
  },
  {
    "id": "2992145",
    "name": "Montpezat-de-Quercy",
    "coordinates": {
      "lon": 1.47682,
      "lat": 44.23876
    }
  },
  {
    "id": "2992577",
    "name": "Montfrin",
    "coordinates": {
      "lon": 4.59266,
      "lat": 43.87624
    }
  },
  {
    "id": "2993013",
    "name": "Montarnaud",
    "coordinates": {
      "lon": 3.69833,
      "lat": 43.64909
    }
  },
  {
    "id": "2995054",
    "name": "Maureillas-las-Illas",
    "coordinates": {
      "lon": 2.80752,
      "lat": 42.49014
    }
  },
  {
    "id": "3003774",
    "name": "Le Houga",
    "coordinates": {
      "lon": -0.18061,
      "lat": 43.77487
    }
  },
  {
    "id": "3006056",
    "name": "Laudun-l'Ardoise",
    "coordinates": {
      "lon": 4.65728,
      "lat": 44.10482
    }
  },
  {
    "id": "3008321",
    "name": "Lamalou-les-Bains",
    "coordinates": {
      "lon": 3.07985,
      "lat": 43.59758
    }
  },
  {
    "id": "3008502",
    "name": "Lalbenque",
    "coordinates": {
      "lon": 1.5452,
      "lat": 44.33839
    }
  },
  {
    "id": "3009699",
    "name": "Lacrouzette",
    "coordinates": {
      "lon": 2.3482,
      "lat": 43.663
    }
  },
  {
    "id": "3011154",
    "name": "Labège",
    "coordinates": {
      "lon": 1.52999,
      "lat": 43.52935
    }
  },
  {
    "id": "3015412",
    "name": "Gragnague",
    "coordinates": {
      "lon": 1.58461,
      "lat": 43.68091
    }
  },
  {
    "id": "3015424",
    "name": "Grabels",
    "coordinates": {
      "lon": 3.80144,
      "lat": 43.648
    }
  },
  {
    "id": "3018103",
    "name": "Fonsorbes",
    "coordinates": {
      "lon": 1.22882,
      "lat": 43.539
    }
  },
  {
    "id": "3019717",
    "name": "Espalion",
    "coordinates": {
      "lon": 2.76265,
      "lat": 44.52237
    }
  },
  {
    "id": "3024239",
    "name": "Colombiers",
    "coordinates": {
      "lon": 3.13994,
      "lat": 43.31317
    }
  },
  {
    "id": "3028258",
    "name": "Castries",
    "coordinates": {
      "lon": 3.98222,
      "lat": 43.67972
    }
  },
  {
    "id": "3031240",
    "name": "Bouillargues",
    "coordinates": {
      "lon": 4.42753,
      "lat": 43.80013
    }
  },
  {
    "id": "3035093",
    "name": "Banyuls-dels-Aspres",
    "coordinates": {
      "lon": 2.86607,
      "lat": 42.56611
    }
  },
  {
    "id": "3035595",
    "name": "Ax-les-Thermes",
    "coordinates": {
      "lon": 1.83937,
      "lat": 42.72016
    }
  },
  {
    "id": "3037682",
    "name": "Anduze",
    "coordinates": {
      "lon": 3.98495,
      "lat": 44.055
    }
  },
  {
    "id": "2967812",
    "name": "Viviers-lès-Montagnes",
    "coordinates": {
      "lon": 2.17654,
      "lat": 43.55458
    }
  },
  {
    "id": "2971412",
    "name": "Uchaud",
    "coordinates": {
      "lon": 4.26948,
      "lat": 43.75725
    }
  },
  {
    "id": "2975018",
    "name": "Septfonds",
    "coordinates": {
      "lon": 1.61806,
      "lat": 44.17831
    }
  },
  {
    "id": "2977885",
    "name": "Saint-Nicolas-de-la-Grave",
    "coordinates": {
      "lon": 1.02252,
      "lat": 44.06412
    }
  },
  {
    "id": "2979095",
    "name": "Saint-Julien-de-Peyrolas",
    "coordinates": {
      "lon": 4.56487,
      "lat": 44.2882
    }
  },
  {
    "id": "2979394",
    "name": "Saint-Jean",
    "coordinates": {
      "lon": 1.50459,
      "lat": 43.66519
    }
  },
  {
    "id": "2980001",
    "name": "Saint-Geniès-des-Mourgues",
    "coordinates": {
      "lon": 4.0361,
      "lat": 43.6978
    }
  },
  {
    "id": "2984493",
    "name": "Ramonville-Saint-Agne",
    "coordinates": {
      "lon": 1.47491,
      "lat": 43.54618
    }
  },
  {
    "id": "2988756",
    "name": "Palaja",
    "coordinates": {
      "lon": 2.38787,
      "lat": 43.17288
    }
  },
  {
    "id": "2991118",
    "name": "Murviel-lès-Montpellier",
    "coordinates": {
      "lon": 3.7375,
      "lat": 43.60528
    }
  },
  {
    "id": "2992347",
    "name": "Montjoire",
    "coordinates": {
      "lon": 1.53362,
      "lat": 43.76899
    }
  },
  {
    "id": "3011249",
    "name": "Labastide-Saint-Sernin",
    "coordinates": {
      "lon": 1.46985,
      "lat": 43.73743
    }
  },
  {
    "id": "3011251",
    "name": "Labastide-Saint-Georges",
    "coordinates": {
      "lon": 1.84585,
      "lat": 43.69962
    }
  },
  {
    "id": "3016940",
    "name": "Frouzins",
    "coordinates": {
      "lon": 1.32523,
      "lat": 43.51482
    }
  },
  {
    "id": "3022608",
    "name": "Creissels",
    "coordinates": {
      "lon": 3.06163,
      "lat": 44.08564
    }
  },
  {
    "id": "3028680",
    "name": "Capvern",
    "coordinates": {
      "lon": 0.31651,
      "lat": 43.1022
    }
  },
  {
    "id": "3034921",
    "name": "Barjac",
    "coordinates": {
      "lon": 4.34774,
      "lat": 44.30841
    }
  },
  {
    "id": "2968066",
    "name": "Vinassan",
    "coordinates": {
      "lon": 3.07463,
      "lat": 43.20443
    }
  },
  {
    "id": "2968545",
    "name": "Villeneuve-lès-Avignon",
    "coordinates": {
      "lon": 4.79258,
      "lat": 43.96773
    }
  },
  {
    "id": "2971693",
    "name": "Trie-sur-Baïse",
    "coordinates": {
      "lon": 0.37064,
      "lat": 43.32114
    }
  },
  {
    "id": "2975244",
    "name": "Seissan",
    "coordinates": {
      "lon": 0.59185,
      "lat": 43.49161
    }
  },
  {
    "id": "2975387",
    "name": "Sébazac-Concourès",
    "coordinates": {
      "lon": 2.60324,
      "lat": 44.40484
    }
  },
  {
    "id": "2978918",
    "name": "Saint-Laurent-des-Arbres",
    "coordinates": {
      "lon": 4.69976,
      "lat": 44.05469
    }
  },
  {
    "id": "2979657",
    "name": "Saint-Girons",
    "coordinates": {
      "lon": 1.14587,
      "lat": 42.98491
    }
  },
  {
    "id": "2980045",
    "name": "Saint-Gaudens",
    "coordinates": {
      "lon": 0.72318,
      "lat": 43.10813
    }
  },
  {
    "id": "2981183",
    "name": "Saint-Chinian",
    "coordinates": {
      "lon": 2.94655,
      "lat": 43.42207
    }
  },
  {
    "id": "2981825",
    "name": "Saint-Amans-Soult",
    "coordinates": {
      "lon": 2.48712,
      "lat": 43.4775
    }
  },
  {
    "id": "2982628",
    "name": "Rouffiac-Tolosan",
    "coordinates": {
      "lon": 1.52521,
      "lat": 43.66576
    }
  },
  {
    "id": "2983154",
    "name": "Rodez",
    "coordinates": {
      "lon": 2.57338,
      "lat": 44.35258
    }
  },
  {
    "id": "2983786",
    "name": "Reynès",
    "coordinates": {
      "lon": 2.7068,
      "lat": 42.47702
    }
  },
  {
    "id": "2984643",
    "name": "Quissac",
    "coordinates": {
      "lon": 4.00102,
      "lat": 43.91073
    }
  },
  {
    "id": "2984969",
    "name": "Puygouzon",
    "coordinates": {
      "lon": 2.1697,
      "lat": 43.89882
    }
  },
  {
    "id": "2986248",
    "name": "Pont-de-Larn",
    "coordinates": {
      "lon": 2.40582,
      "lat": 43.50447
    }
  },
  {
    "id": "2987439",
    "name": "Pezens",
    "coordinates": {
      "lon": 2.26868,
      "lat": 43.25446
    }
  },
  {
    "id": "2988082",
    "name": "Pennautier",
    "coordinates": {
      "lon": 2.31882,
      "lat": 43.24577
    }
  },
  {
    "id": "2989108",
    "name": "Ossun",
    "coordinates": {
      "lon": -0.02662,
      "lat": 43.18393
    }
  },
  {
    "id": "2991390",
    "name": "Moussac",
    "coordinates": {
      "lon": 4.22863,
      "lat": 43.98244
    }
  },
  {
    "id": "2992661",
    "name": "Montesquiu d'Albera",
    "coordinates": {
      "lon": 2.88243,
      "lat": 42.51798
    }
  },
  {
    "id": "2993002",
    "name": "Montauban",
    "coordinates": {
      "lon": 1.3542,
      "lat": 44.01759
    }
  },
  {
    "id": "2993320",
    "name": "Monestiés",
    "coordinates": {
      "lon": 2.09677,
      "lat": 44.07105
    }
  },
  {
    "id": "2997812",
    "name": "Lombez",
    "coordinates": {
      "lon": 0.91039,
      "lat": 43.47543
    }
  },
  {
    "id": "3002537",
    "name": "Le Poujol-sur-Orb",
    "coordinates": {
      "lon": 3.06044,
      "lat": 43.57954
    }
  },
  {
    "id": "3003610",
    "name": "Le Malzieu-Ville",
    "coordinates": {
      "lon": 3.33013,
      "lat": 44.8556
    }
  },
  {
    "id": "3005983",
    "name": "Laure-Minervois",
    "coordinates": {
      "lon": 2.52008,
      "lat": 43.27136
    }
  },
  {
    "id": "3012109",
    "name": "Juillan",
    "coordinates": {
      "lon": 0.02326,
      "lat": 43.20072
    }
  },
  {
    "id": "3016714",
    "name": "Ganges",
    "coordinates": {
      "lon": 3.70797,
      "lat": 43.93419
    }
  },
  {
    "id": "3023602",
    "name": "Corneilhan",
    "coordinates": {
      "lon": 3.19238,
      "lat": 43.39962
    }
  },
  {
    "id": "3028048",
    "name": "Cazes-Mondenard",
    "coordinates": {
      "lon": 1.2018,
      "lat": 44.22726
    }
  },
  {
    "id": "3028050",
    "name": "Cazères",
    "coordinates": {
      "lon": 1.08578,
      "lat": 43.20718
    }
  },
  {
    "id": "3031205",
    "name": "Boujan-sur-Libron",
    "coordinates": {
      "lon": 3.24749,
      "lat": 43.37082
    }
  },
  {
    "id": "3034170",
    "name": "Beaumont-de-Lomagne",
    "coordinates": {
      "lon": 0.98768,
      "lat": 43.88303
    }
  },
  {
    "id": "3035204",
    "name": "Balma",
    "coordinates": {
      "lon": 1.49944,
      "lat": 43.61111
    }
  },
  {
    "id": "3035441",
    "name": "Bagard",
    "coordinates": {
      "lon": 4.05137,
      "lat": 44.07281
    }
  },
  {
    "id": "3035802",
    "name": "Auzeville-Tolosane",
    "coordinates": {
      "lon": 1.48321,
      "lat": 43.52822
    }
  },
  {
    "id": "3036097",
    "name": "Aumont-Aubrac",
    "coordinates": {
      "lon": 3.28385,
      "lat": 44.72237
    }
  },
  {
    "id": "3038224",
    "name": "Alès",
    "coordinates": {
      "lon": 4.08082,
      "lat": 44.12489
    }
  },
  {
    "id": "3038427",
    "name": "Aimargues",
    "coordinates": {
      "lon": 4.20774,
      "lat": 43.68536
    }
  },
  {
    "id": "3038638",
    "name": "Agde",
    "coordinates": {
      "lon": 3.47583,
      "lat": 43.31083
    }
  },
  {
    "id": "2968504",
    "name": "Villenouvelle",
    "coordinates": {
      "lon": 1.66281,
      "lat": 43.43568
    }
  },
  {
    "id": "2968575",
    "name": "Villeneuve",
    "coordinates": {
      "lon": 2.03148,
      "lat": 44.43729
    }
  },
  {
    "id": "2968755",
    "name": "Villefranche-de-Rouergue",
    "coordinates": {
      "lon": 2.03702,
      "lat": 44.35166
    }
  },
  {
    "id": "2971137",
    "name": "Valady",
    "coordinates": {
      "lon": 2.42746,
      "lat": 44.45633
    }
  },
  {
    "id": "2973392",
    "name": "Tarascon-sur-Ariège",
    "coordinates": {
      "lon": 1.6056,
      "lat": 42.8471
    }
  },
  {
    "id": "2975674",
    "name": "Sauve",
    "coordinates": {
      "lon": 3.94935,
      "lat": 43.94208
    }
  },
  {
    "id": "2976375",
    "name": "Salles-Curan",
    "coordinates": {
      "lon": 2.78714,
      "lat": 44.18274
    }
  },
  {
    "id": "2977926",
    "name": "Saint-Nazaire",
    "coordinates": {
      "lon": 2.99134,
      "lat": 42.66743
    }
  },
  {
    "id": "2979995",
    "name": "Saint-Geniez-d'Olt",
    "coordinates": {
      "lon": 2.9736,
      "lat": 44.46559
    }
  },
  {
    "id": "2981788",
    "name": "Sant Andreu de Sureda",
    "coordinates": {
      "lon": 2.97129,
      "lat": 42.55201
    }
  },
  {
    "id": "2981810",
    "name": "Saint-Ambroix",
    "coordinates": {
      "lon": 4.19817,
      "lat": 44.26059
    }
  },
  {
    "id": "2988043",
    "name": "Pépieux",
    "coordinates": {
      "lon": 2.67825,
      "lat": 43.29755
    }
  },
  {
    "id": "2990890",
    "name": "Naucelle",
    "coordinates": {
      "lon": 2.3417,
      "lat": 44.19796
    }
  },
  {
    "id": "2992654",
    "name": "Montesquieu-Volvestre",
    "coordinates": {
      "lon": 1.23008,
      "lat": 43.20814
    }
  },
  {
    "id": "2993717",
    "name": "Mireval",
    "coordinates": {
      "lon": 3.8017,
      "lat": 43.5086
    }
  },
  {
    "id": "2998132",
    "name": "L'Isle-en-Dodon",
    "coordinates": {
      "lon": 0.83526,
      "lat": 43.38153
    }
  },
  {
    "id": "2998445",
    "name": "Lieuran-lès-Béziers",
    "coordinates": {
      "lon": 3.23686,
      "lat": 43.41869
    }
  },
  {
    "id": "3011250",
    "name": "Labastide-Saint-Pierre",
    "coordinates": {
      "lon": 1.36736,
      "lat": 43.91887
    }
  },
  {
    "id": "3012921",
    "name": "Ibos",
    "coordinates": {
      "lon": 0.00123,
      "lat": 43.23339
    }
  },
  {
    "id": "3013462",
    "name": "Hérépian",
    "coordinates": {
      "lon": 3.11439,
      "lat": 43.5936
    }
  },
  {
    "id": "3014477",
    "name": "Gruissan",
    "coordinates": {
      "lon": 3.08651,
      "lat": 43.10759
    }
  },
  {
    "id": "3016073",
    "name": "Gignac",
    "coordinates": {
      "lon": 3.55096,
      "lat": 43.65207
    }
  },
  {
    "id": "3018174",
    "name": "Foix",
    "coordinates": {
      "lon": 1.60705,
      "lat": 42.96535
    }
  },
  {
    "id": "3021682",
    "name": "Daux",
    "coordinates": {
      "lon": 1.26892,
      "lat": 43.69506
    }
  },
  {
    "id": "3023294",
    "name": "Couiza",
    "coordinates": {
      "lon": 2.2555,
      "lat": 42.94299
    }
  },
  {
    "id": "3023599",
    "name": "Corneilla-la-Rivière",
    "coordinates": {
      "lon": 2.73007,
      "lat": 42.69736
    }
  },
  {
    "id": "3027927",
    "name": "Cépet",
    "coordinates": {
      "lon": 1.43089,
      "lat": 43.74979
    }
  },
  {
    "id": "3028263",
    "name": "Castres",
    "coordinates": {
      "lon": 2.24088,
      "lat": 43.60527
    }
  },
  {
    "id": "3028337",
    "name": "Castelnau-le-Lez",
    "coordinates": {
      "lon": 3.90137,
      "lat": 43.63605
    }
  },
  {
    "id": "3029107",
    "name": "Calmont",
    "coordinates": {
      "lon": 2.51201,
      "lat": 44.24883
    }
  },
  {
    "id": "3030542",
    "name": "Branoux-les-Taillades",
    "coordinates": {
      "lon": 3.99019,
      "lat": 44.22056
    }
  },
  {
    "id": "3030640",
    "name": "Bozouls",
    "coordinates": {
      "lon": 2.72534,
      "lat": 44.47202
    }
  },
  {
    "id": "3030983",
    "name": "la Guingueta d'Ix",
    "coordinates": {
      "lon": 1.94391,
      "lat": 42.43416
    }
  },
  {
    "id": "3032469",
    "name": "Blagnac",
    "coordinates": {
      "lon": 1.38971,
      "lat": 43.63675
    }
  },
  {
    "id": "3033565",
    "name": "Belpech",
    "coordinates": {
      "lon": 1.75201,
      "lat": 43.19817
    }
  },
  {
    "id": "3033698",
    "name": "Bellegarde",
    "coordinates": {
      "lon": 4.51372,
      "lat": 43.75401
    }
  },
  {
    "id": "3033959",
    "name": "Beauvoisin",
    "coordinates": {
      "lon": 4.32298,
      "lat": 43.71869
    }
  },
  {
    "id": "2969781",
    "name": "Verniolle",
    "coordinates": {
      "lon": 1.64803,
      "lat": 43.08175
    }
  },
  {
    "id": "2973626",
    "name": "Sussargues",
    "coordinates": {
      "lon": 4.0031,
      "lat": 43.7125
    }
  },
  {
    "id": "2975191",
    "name": "Sémalens",
    "coordinates": {
      "lon": 2.11002,
      "lat": 43.5914
    }
  },
  {
    "id": "2975649",
    "name": "Sauvian",
    "coordinates": {
      "lon": 3.2576,
      "lat": 43.29308
    }
  },
  {
    "id": "2977918",
    "name": "Saint-Nazaire-d'Aude",
    "coordinates": {
      "lon": 2.89441,
      "lat": 43.24451
    }
  },
  {
    "id": "2980163",
    "name": "Saint-Féliu-d'Avall",
    "coordinates": {
      "lon": 2.73814,
      "lat": 42.68168
    }
  },
  {
    "id": "2986460",
    "name": "Pollestres",
    "coordinates": {
      "lon": 2.86736,
      "lat": 42.63799
    }
  },
  {
    "id": "2988309",
    "name": "Pavie",
    "coordinates": {
      "lon": 0.58871,
      "lat": 43.61011
    }
  },
  {
    "id": "2988922",
    "name": "Ouveillan",
    "coordinates": {
      "lon": 2.97029,
      "lat": 43.28858
    }
  },
  {
    "id": "2989308",
    "name": "Orleix",
    "coordinates": {
      "lon": 0.12043,
      "lat": 43.27945
    }
  },
  {
    "id": "2993523",
    "name": "Molières-sur-Cèze",
    "coordinates": {
      "lon": 4.15855,
      "lat": 44.25995
    }
  },
  {
    "id": "2994298",
    "name": "Merville",
    "coordinates": {
      "lon": 1.29656,
      "lat": 43.72354
    }
  },
  {
    "id": "2996236",
    "name": "Manduel",
    "coordinates": {
      "lon": 4.47247,
      "lat": 43.81855
    }
  },
  {
    "id": "2999649",
    "name": "Les Salles-du-Gardon",
    "coordinates": {
      "lon": 4.03469,
      "lat": 44.20675
    }
  },
  {
    "id": "3005060",
    "name": "Le Bousquet-d'Orb",
    "coordinates": {
      "lon": 3.16595,
      "lat": 43.6925
    }
  },
  {
    "id": "3006121",
    "name": "Lattes",
    "coordinates": {
      "lon": 3.90279,
      "lat": 43.56775
    }
  },
  {
    "id": "3009289",
    "name": "Lafrançaise",
    "coordinates": {
      "lon": 1.24049,
      "lat": 44.1276
    }
  },
  {
    "id": "3016645",
    "name": "Gardouch",
    "coordinates": {
      "lon": 1.68406,
      "lat": 43.39073
    }
  },
  {
    "id": "3016956",
    "name": "Frontignan",
    "coordinates": {
      "lon": 3.75524,
      "lat": 43.44775
    }
  },
  {
    "id": "3022956",
    "name": "Coursan",
    "coordinates": {
      "lon": 3.05712,
      "lat": 43.2337
    }
  },
  {
    "id": "3028152",
    "name": "Cauterets",
    "coordinates": {
      "lon": -0.11412,
      "lat": 42.8892
    }
  },
  {
    "id": "3031848",
    "name": "Bompas",
    "coordinates": {
      "lon": 2.93325,
      "lat": 42.73099
    }
  },
  {
    "id": "3035370",
    "name": "Baillargues",
    "coordinates": {
      "lon": 4.01283,
      "lat": 43.66126
    }
  },
  {
    "id": "3035416",
    "name": "Bagnères-de-Luchon",
    "coordinates": {
      "lon": 0.59341,
      "lat": 42.79079
    }
  },
  {
    "id": "3036687",
    "name": "Arthès",
    "coordinates": {
      "lon": 2.20796,
      "lat": 43.95592
    }
  },
  {
    "id": "2968510",
    "name": "Villeneuve-Tolosane",
    "coordinates": {
      "lon": 1.34102,
      "lat": 43.52316
    }
  },
  {
    "id": "2968558",
    "name": "Villeneuve-la-Comptal",
    "coordinates": {
      "lon": 1.9212,
      "lat": 43.28692
    }
  },
  {
    "id": "2968761",
    "name": "Villefranche-d'Albigeois",
    "coordinates": {
      "lon": 2.33022,
      "lat": 43.89635
    }
  },
  {
    "id": "2969930",
    "name": "Vergèze",
    "coordinates": {
      "lon": 4.22018,
      "lat": 43.74363
    }
  },
  {
    "id": "2971043",
    "name": "Valence-sur-Baïse",
    "coordinates": {
      "lon": 0.38108,
      "lat": 43.88222
    }
  },
  {
    "id": "2976443",
    "name": "Salies-du-Salat",
    "coordinates": {
      "lon": 0.958,
      "lat": 43.10224
    }
  },
  {
    "id": "2976481",
    "name": "Saleilles",
    "coordinates": {
      "lon": 2.95168,
      "lat": 42.65436
    }
  },
  {
    "id": "2978925",
    "name": "Saint-Laurent-de-la-Salanque",
    "coordinates": {
      "lon": 2.99041,
      "lat": 42.77399
    }
  },
  {
    "id": "2980108",
    "name": "Saint-Florent-sur-Auzonnet",
    "coordinates": {
      "lon": 4.11151,
      "lat": 44.24166
    }
  },
  {
    "id": "2985096",
    "name": "Puisserguier",
    "coordinates": {
      "lon": 3.04069,
      "lat": 43.36798
    }
  },
  {
    "id": "2985653",
    "name": "Prades",
    "coordinates": {
      "lon": 2.42177,
      "lat": 42.61755
    }
  },
  {
    "id": "2987275",
    "name": "Pierrefitte-Nestalas",
    "coordinates": {
      "lon": -0.07385,
      "lat": 42.96106
    }
  },
  {
    "id": "2990363",
    "name": "Nîmes",
    "coordinates": {
      "lon": 4.35788,
      "lat": 43.83665
    }
  },
  {
    "id": "2990919",
    "name": "Narbonne",
    "coordinates": {
      "lon": 3.00141,
      "lat": 43.18396
    }
  },
  {
    "id": "2992350",
    "name": "Montjoie-en-Couserans",
    "coordinates": {
      "lon": 1.16,
      "lat": 43.0025
    }
  },
  {
    "id": "2993078",
    "name": "Montaigut-sur-Save",
    "coordinates": {
      "lon": 1.23133,
      "lat": 43.68947
    }
  },
  {
    "id": "2994057",
    "name": "Meyrueis",
    "coordinates": {
      "lon": 3.42916,
      "lat": 44.17865
    }
  },
  {
    "id": "2995230",
    "name": "Masseube",
    "coordinates": {
      "lon": 0.57888,
      "lat": 43.42965
    }
  },
  {
    "id": "2995922",
    "name": "Marcorignan",
    "coordinates": {
      "lon": 2.92209,
      "lat": 43.22594
    }
  },
  {
    "id": "2997113",
    "name": "Lunel-Viel",
    "coordinates": {
      "lon": 4.0925,
      "lat": 43.6789
    }
  },
  {
    "id": "2998066",
    "name": "Livinhac-le-Haut",
    "coordinates": {
      "lon": 2.23117,
      "lat": 44.59212
    }
  },
  {
    "id": "3003308",
    "name": "Le Monastère",
    "coordinates": {
      "lon": 2.57956,
      "lat": 44.34165
    }
  },
  {
    "id": "3005102",
    "name": "Le Boulou",
    "coordinates": {
      "lon": 2.83336,
      "lat": 42.52424
    }
  },
  {
    "id": "3020747",
    "name": "Druelle",
    "coordinates": {
      "lon": 2.50505,
      "lat": 44.36006
    }
  },
  {
    "id": "3020825",
    "name": "Drémil-Lafage",
    "coordinates": {
      "lon": 1.60117,
      "lat": 43.59624
    }
  },
  {
    "id": "3027582",
    "name": "Chalabre",
    "coordinates": {
      "lon": 2.00611,
      "lat": 42.98401
    }
  },
  {
    "id": "3029503",
    "name": "Burlats",
    "coordinates": {
      "lon": 2.31818,
      "lat": 43.63641
    }
  },
  {
    "id": "3034442",
    "name": "Baziège",
    "coordinates": {
      "lon": 1.61386,
      "lat": 43.45494
    }
  },
  {
    "id": "3035859",
    "name": "Auvillar",
    "coordinates": {
      "lon": 0.89965,
      "lat": 44.06946
    }
  },
  {
    "id": "3036430",
    "name": "Aubais",
    "coordinates": {
      "lon": 4.14733,
      "lat": 43.75524
    }
  },
  {
    "id": "2968542",
    "name": "Villeneuve-lès-Bouloc",
    "coordinates": {
      "lon": 1.42561,
      "lat": 43.76904
    }
  },
  {
    "id": "2968691",
    "name": "Villelongue-de-la-Salanque",
    "coordinates": {
      "lon": 2.98219,
      "lat": 42.72657
    }
  },
  {
    "id": "2970086",
    "name": "Venerque",
    "coordinates": {
      "lon": 1.44329,
      "lat": 43.43405
    }
  },
  {
    "id": "2972317",
    "name": "Toulouges",
    "coordinates": {
      "lon": 2.83235,
      "lat": 42.67077
    }
  },
  {
    "id": "2974146",
    "name": "Soual",
    "coordinates": {
      "lon": 2.11677,
      "lat": 43.55622
    }
  },
  {
    "id": "2975888",
    "name": "Saubens",
    "coordinates": {
      "lon": 1.35446,
      "lat": 43.47779
    }
  },
  {
    "id": "2981824",
    "name": "Saint-Amans-Valtoret",
    "coordinates": {
      "lon": 2.49074,
      "lat": 43.48171
    }
  },
  {
    "id": "2985641",
    "name": "Prades-le-Lez",
    "coordinates": {
      "lon": 3.86504,
      "lat": 43.6993
    }
  },
  {
    "id": "2986233",
    "name": "Pont-de-Salars",
    "coordinates": {
      "lon": 2.72743,
      "lat": 44.28134
    }
  },
  {
    "id": "2987437",
    "name": "Pézilla-la-Rivière",
    "coordinates": {
      "lon": 2.77018,
      "lat": 42.69488
    }
  },
  {
    "id": "2987497",
    "name": "Peyriac-de-Mer",
    "coordinates": {
      "lon": 2.95725,
      "lat": 43.08715
    }
  },
  {
    "id": "2988965",
    "name": "Oursbelille",
    "coordinates": {
      "lon": 0.03698,
      "lat": 43.28688
    }
  },
  {
    "id": "2991119",
    "name": "Murviel-lès-Béziers",
    "coordinates": {
      "lon": 3.13333,
      "lat": 43.43333
    }
  },
  {
    "id": "2992124",
    "name": "Montrabé",
    "coordinates": {
      "lon": 1.52384,
      "lat": 43.64477
    }
  },
  {
    "id": "2992571",
    "name": "Montgaillard",
    "coordinates": {
      "lon": 1.63351,
      "lat": 42.93539
    }
  },
  {
    "id": "2995471",
    "name": "Marseillan",
    "coordinates": {
      "lon": 3.52804,
      "lat": 43.35674
    }
  },
  {
    "id": "2998124",
    "name": "Lisle-sur-Tarn",
    "coordinates": {
      "lon": 1.80983,
      "lat": 43.85347
    }
  },
  {
    "id": "2998666",
    "name": "Lézan",
    "coordinates": {
      "lon": 4.05053,
      "lat": 44.01272
    }
  },
  {
    "id": "3000139",
    "name": "Le Soler",
    "coordinates": {
      "lon": 2.79305,
      "lat": 42.68185
    }
  },
  {
    "id": "3004346",
    "name": "Lédignan",
    "coordinates": {
      "lon": 4.10683,
      "lat": 43.98857
    }
  },
  {
    "id": "3006524",
    "name": "La Salvetat-Peyralès",
    "coordinates": {
      "lon": 2.20259,
      "lat": 44.21984
    }
  },
  {
    "id": "3008636",
    "name": "Laissac",
    "coordinates": {
      "lon": 2.82271,
      "lat": 44.38097
    }
  },
  {
    "id": "3014606",
    "name": "Grisolles",
    "coordinates": {
      "lon": 1.29673,
      "lat": 43.8292
    }
  },
  {
    "id": "3015690",
    "name": "Gondrin",
    "coordinates": {
      "lon": 0.23652,
      "lat": 43.88499
    }
  },
  {
    "id": "3016595",
    "name": "Garons",
    "coordinates": {
      "lon": 4.42849,
      "lat": 43.7682
    }
  },
  {
    "id": "3017879",
    "name": "Fontenilles",
    "coordinates": {
      "lon": 1.19142,
      "lat": 43.5535
    }
  },
  {
    "id": "3020593",
    "name": "Eaunes",
    "coordinates": {
      "lon": 1.35349,
      "lat": 43.42548
    }
  },
  {
    "id": "3028044",
    "name": "Cazilhac",
    "coordinates": {
      "lon": 3.70145,
      "lat": 43.92379
    }
  },
  {
    "id": "3028322",
    "name": "Castelsarrasin",
    "coordinates": {
      "lon": 1.10666,
      "lat": 44.04042
    }
  },
  {
    "id": "3028345",
    "name": "Castelnau-de-Lévis",
    "coordinates": {
      "lon": 2.08491,
      "lat": 43.93975
    }
  },
  {
    "id": "3029168",
    "name": "Cajarc",
    "coordinates": {
      "lon": 1.84261,
      "lat": 44.48546
    }
  },
  {
    "id": "3030520",
    "name": "Brassac",
    "coordinates": {
      "lon": 2.4984,
      "lat": 43.63
    }
  },
  {
    "id": "3031135",
    "name": "Boulogne-sur-Gesse",
    "coordinates": {
      "lon": 0.64797,
      "lat": 43.28825
    }
  },
  {
    "id": "3031178",
    "name": "Boulbon",
    "coordinates": {
      "lon": 4.69391,
      "lat": 43.86232
    }
  },
  {
    "id": "3035801",
    "name": "Auzielle",
    "coordinates": {
      "lon": 1.56589,
      "lat": 43.54203
    }
  },
  {
    "id": "3037331",
    "name": "Aramon",
    "coordinates": {
      "lon": 4.68058,
      "lat": 43.89113
    }
  },
  {
    "id": "3038493",
    "name": "Aigues-Mortes",
    "coordinates": {
      "lon": 4.19068,
      "lat": 43.56683
    }
  },
  {
    "id": "2970978",
    "name": "Vallabrègues",
    "coordinates": {
      "lon": 4.62662,
      "lat": 43.85307
    }
  },
  {
    "id": "2974925",
    "name": "Sérignan",
    "coordinates": {
      "lon": 3.27664,
      "lat": 43.27924
    }
  },
  {
    "id": "2982443",
    "name": "Rousson",
    "coordinates": {
      "lon": 4.14475,
      "lat": 44.19708
    }
  },
  {
    "id": "2982543",
    "name": "Roujan",
    "coordinates": {
      "lon": 3.31063,
      "lat": 43.50471
    }
  },
  {
    "id": "2983606",
    "name": "Rieumes",
    "coordinates": {
      "lon": 1.11763,
      "lat": 43.41231
    }
  },
  {
    "id": "2989359",
    "name": "Orgueil",
    "coordinates": {
      "lon": 1.41071,
      "lat": 43.90618
    }
  },
  {
    "id": "2989629",
    "name": "Olemps",
    "coordinates": {
      "lon": 2.5514,
      "lat": 44.34638
    }
  },
  {
    "id": "2991386",
    "name": "Moussan",
    "coordinates": {
      "lon": 2.94946,
      "lat": 43.23163
    }
  },
  {
    "id": "2992917",
    "name": "Montblanc",
    "coordinates": {
      "lon": 3.36718,
      "lat": 43.3959
    }
  },
  {
    "id": "2993160",
    "name": "Montagnac",
    "coordinates": {
      "lon": 3.48224,
      "lat": 43.48094
    }
  },
  {
    "id": "2995121",
    "name": "Mauguio",
    "coordinates": {
      "lon": 4.00739,
      "lat": 43.61692
    }
  },
  {
    "id": "3005792",
    "name": "Laval-Pradel",
    "coordinates": {
      "lon": 4.06591,
      "lat": 44.20665
    }
  },
  {
    "id": "3006215",
    "name": "Latour-Bas-Elne",
    "coordinates": {
      "lon": 3.00153,
      "lat": 42.60742
    }
  },
  {
    "id": "3007327",
    "name": "Lapeyrouse-Fossat",
    "coordinates": {
      "lon": 1.51049,
      "lat": 43.69973
    }
  },
  {
    "id": "3009163",
    "name": "Lagarrigue",
    "coordinates": {
      "lon": 2.27576,
      "lat": 43.57697
    }
  },
  {
    "id": "3017824",
    "name": "Font-Romeu-Odeillo-Via",
    "coordinates": {
      "lon": 2.04011,
      "lat": 42.50552
    }
  },
  {
    "id": "3019584",
    "name": "Estagel",
    "coordinates": {
      "lon": 2.69819,
      "lat": 42.77276
    }
  },
  {
    "id": "3024817",
    "name": "Claira",
    "coordinates": {
      "lon": 2.95606,
      "lat": 42.76023
    }
  },
  {
    "id": "3028072",
    "name": "Cazaubon",
    "coordinates": {
      "lon": -0.07209,
      "lat": 43.93475
    }
  },
  {
    "id": "3029071",
    "name": "Camarès",
    "coordinates": {
      "lon": 2.88005,
      "lat": 43.82208
    }
  },
  {
    "id": "3036314",
    "name": "Aubord",
    "coordinates": {
      "lon": 4.31301,
      "lat": 43.75698
    }
  },
  {
    "id": "2968626",
    "name": "Villemur-sur-Tarn",
    "coordinates": {
      "lon": 1.50281,
      "lat": 43.86708
    }
  },
  {
    "id": "2970144",
    "name": "Vendargues",
    "coordinates": {
      "lon": 3.97,
      "lat": 43.65833
    }
  },
  {
    "id": "2971202",
    "name": "Vacquiers",
    "coordinates": {
      "lon": 1.48127,
      "lat": 43.77667
    }
  },
  {
    "id": "2976366",
    "name": "Salles-la-Source",
    "coordinates": {
      "lon": 2.51463,
      "lat": 44.43589
    }
  },
  {
    "id": "2978706",
    "name": "Saint-Loup-Cammas",
    "coordinates": {
      "lon": 1.48127,
      "lat": 43.69767
    }
  },
  {
    "id": "2978760",
    "name": "Saint-Lizier",
    "coordinates": {
      "lon": 1.13739,
      "lat": 43.00185
    }
  },
  {
    "id": "2979245",
    "name": "Saint-Jean-du-Falga",
    "coordinates": {
      "lon": 1.6278,
      "lat": 43.08647
    }
  },
  {
    "id": "2982836",
    "name": "Roquettes",
    "coordinates": {
      "lon": 1.36848,
      "lat": 43.49733
    }
  },
  {
    "id": "2983443",
    "name": "Riscle",
    "coordinates": {
      "lon": -0.08764,
      "lat": 43.65695
    }
  },
  {
    "id": "2985564",
    "name": "Prats de Molló",
    "coordinates": {
      "lon": 2.47928,
      "lat": 42.40404
    }
  },
  {
    "id": "2998018",
    "name": "Llupia",
    "coordinates": {
      "lon": 2.76897,
      "lat": 42.62134
    }
  },
  {
    "id": "2998130",
    "name": "L'Isle-Jourdain",
    "coordinates": {
      "lon": 1.0866,
      "lat": 43.6122
    }
  },
  {
    "id": "2998803",
    "name": "Lévignac",
    "coordinates": {
      "lon": 1.19398,
      "lat": 43.66626
    }
  },
  {
    "id": "3008914",
    "name": "Lagrave",
    "coordinates": {
      "lon": 1.9926,
      "lat": 43.89772
    }
  },
  {
    "id": "3010580",
    "name": "Lacasse",
    "coordinates": {
      "lon": 1.26951,
      "lat": 43.39873
    }
  },
  {
    "id": "3012004",
    "name": "Juvignac",
    "coordinates": {
      "lon": 3.81056,
      "lat": 43.61389
    }
  },
  {
    "id": "3014848",
    "name": "Gratentour",
    "coordinates": {
      "lon": 1.43234,
      "lat": 43.7236
    }
  },
  {
    "id": "3016837",
    "name": "Gagnac-sur-Garonne",
    "coordinates": {
      "lon": 1.37535,
      "lat": 43.6999
    }
  },
  {
    "id": "3018142",
    "name": "Fonbeauzard",
    "coordinates": {
      "lon": 1.4344,
      "lat": 43.6783
    }
  },
  {
    "id": "3028162",
    "name": "Caussade",
    "coordinates": {
      "lon": 1.53691,
      "lat": 44.16125
    }
  },
  {
    "id": "3030338",
    "name": "Brens",
    "coordinates": {
      "lon": 1.90716,
      "lat": 43.88725
    }
  },
  {
    "id": "3033073",
    "name": "Bessèges",
    "coordinates": {
      "lon": 4.1004,
      "lat": 44.29174
    }
  },
  {
    "id": "3033799",
    "name": "Bélesta",
    "coordinates": {
      "lon": 1.93412,
      "lat": 42.90396
    }
  },
  {
    "id": "3036027",
    "name": "Auriac-sur-Vendinelle",
    "coordinates": {
      "lon": 1.82661,
      "lat": 43.52379
    }
  },
  {
    "id": "3037572",
    "name": "Aniane",
    "coordinates": {
      "lon": 3.5863,
      "lat": 43.68561
    }
  },
  {
    "id": "3037984",
    "name": "Alzonne",
    "coordinates": {
      "lon": 2.17577,
      "lat": 43.25379
    }
  },
  {
    "id": "3038257",
    "name": "Albias",
    "coordinates": {
      "lon": 1.449,
      "lat": 44.08983
    }
  },
  {
    "id": "2974203",
    "name": "Sorède",
    "coordinates": {
      "lon": 2.95708,
      "lat": 42.53069
    }
  },
  {
    "id": "2975181",
    "name": "Séméac",
    "coordinates": {
      "lon": 0.10513,
      "lat": 43.22834
    }
  },
  {
    "id": "2979087",
    "name": "Saint-Julien-les-Rosiers",
    "coordinates": {
      "lon": 4.10803,
      "lat": 44.17445
    }
  },
  {
    "id": "2979148",
    "name": "Saint-Juéry",
    "coordinates": {
      "lon": 2.20913,
      "lat": 43.94838
    }
  },
  {
    "id": "2979554",
    "name": "Saint-Hilaire-de-Brethmas",
    "coordinates": {
      "lon": 4.1247,
      "lat": 44.08114
    }
  },
  {
    "id": "2990831",
    "name": "Nébian",
    "coordinates": {
      "lon": 3.43083,
      "lat": 43.60635
    }
  },
  {
    "id": "2992627",
    "name": "Montfaucon",
    "coordinates": {
      "lon": 4.75403,
      "lat": 44.0742
    }
  },
  {
    "id": "2995339",
    "name": "Marvejols",
    "coordinates": {
      "lon": 3.29041,
      "lat": 44.55435
    }
  },
  {
    "id": "2998643",
    "name": "Lézignan-la-Cèbe",
    "coordinates": {
      "lon": 3.43672,
      "lat": 43.49399
    }
  },
  {
    "id": "3006036",
    "name": "Launac",
    "coordinates": {
      "lon": 1.18172,
      "lat": 43.74357
    }
  },
  {
    "id": "3010634",
    "name": "La Calmette",
    "coordinates": {
      "lon": 4.26322,
      "lat": 43.92428
    }
  },
  {
    "id": "3012848",
    "name": "Ille-sur-Têt",
    "coordinates": {
      "lon": 2.62066,
      "lat": 42.67083
    }
  },
  {
    "id": "3022151",
    "name": "Cugnaux",
    "coordinates": {
      "lon": 1.34428,
      "lat": 43.53635
    }
  },
  {
    "id": "3022987",
    "name": "Cournonsec",
    "coordinates": {
      "lon": 3.70556,
      "lat": 43.54944
    }
  },
  {
    "id": "3023911",
    "name": "Congénies",
    "coordinates": {
      "lon": 4.15964,
      "lat": 43.77804
    }
  },
  {
    "id": "3028340",
    "name": "Castelnau-d'Estrétefonds",
    "coordinates": {
      "lon": 1.35904,
      "lat": 43.78367
    }
  },
  {
    "id": "3029174",
    "name": "Caissargues",
    "coordinates": {
      "lon": 4.37842,
      "lat": 43.79573
    }
  },
  {
    "id": "3030308",
    "name": "Bressols",
    "coordinates": {
      "lon": 1.33753,
      "lat": 43.96807
    }
  },
  {
    "id": "3032292",
    "name": "Blaye-les-Mines",
    "coordinates": {
      "lon": 2.13129,
      "lat": 44.03072
    }
  },
  {
    "id": "3034992",
    "name": "Barcelonne-du-Gers",
    "coordinates": {
      "lon": -0.23632,
      "lat": 43.70334
    }
  },
  {
    "id": "3035268",
    "name": "Balaruc-les-Bains",
    "coordinates": {
      "lon": 3.6778,
      "lat": 43.4417
    }
  },
  {
    "id": "3035991",
    "name": "Aussillon",
    "coordinates": {
      "lon": 2.36313,
      "lat": 43.49897
    }
  },
  {
    "id": "3036018",
    "name": "Aurignac",
    "coordinates": {
      "lon": 0.88168,
      "lat": 43.21722
    }
  },
  {
    "id": "3038226",
    "name": "Alénya",
    "coordinates": {
      "lon": 2.98127,
      "lat": 42.63978
    }
  },
  {
    "id": "3038488",
    "name": "Aigues-Vives",
    "coordinates": {
      "lon": 4.17976,
      "lat": 43.7397
    }
  },
  {
    "id": "2969474",
    "name": "Vézénobres",
    "coordinates": {
      "lon": 4.13628,
      "lat": 44.0529
    }
  },
  {
    "id": "2969944",
    "name": "Verfeil",
    "coordinates": {
      "lon": 1.6634,
      "lat": 43.65781
    }
  },
  {
    "id": "2970095",
    "name": "Vénéjan",
    "coordinates": {
      "lon": 4.65713,
      "lat": 44.19694
    }
  },
  {
    "id": "2970407",
    "name": "Vauvert",
    "coordinates": {
      "lon": 4.27587,
      "lat": 43.69386
    }
  },
  {
    "id": "2968536",
    "name": "Villeneuve-lès-Maguelone",
    "coordinates": {
      "lon": 3.86047,
      "lat": 43.53222
    }
  },
  {
    "id": "2968571",
    "name": "Villeneuve-de-la-Raho",
    "coordinates": {
      "lon": 2.91683,
      "lat": 42.63696
    }
  },
  {
    "id": "2970104",
    "name": "Vendres",
    "coordinates": {
      "lon": 3.22395,
      "lat": 43.26978
    }
  },
  {
    "id": "2972412",
    "name": "Torreilles",
    "coordinates": {
      "lon": 2.99351,
      "lat": 42.75505
    }
  },
  {
    "id": "2972904",
    "name": "Thézan-lès-Béziers",
    "coordinates": {
      "lon": 3.16897,
      "lat": 43.42166
    }
  },
  {
    "id": "2975592",
    "name": "Saverdun",
    "coordinates": {
      "lon": 1.57443,
      "lat": 43.23458
    }
  },
  {
    "id": "2976489",
    "name": "Salses-le-Château",
    "coordinates": {
      "lon": 2.91667,
      "lat": 42.83333
    }
  },
  {
    "id": "2976520",
    "name": "Saïx",
    "coordinates": {
      "lon": 2.18267,
      "lat": 43.58109
    }
  },
  {
    "id": "2979692",
    "name": "Saint-Gervasy",
    "coordinates": {
      "lon": 4.46818,
      "lat": 43.87796
    }
  },
  {
    "id": "2981521",
    "name": "Saint-Aunès",
    "coordinates": {
      "lon": 3.96583,
      "lat": 43.64083
    }
  },
  {
    "id": "2984626",
    "name": "Rabastens-de-Bigorre",
    "coordinates": {
      "lon": 0.15057,
      "lat": 43.38758
    }
  },
  {
    "id": "2987914",
    "name": "Perpignan",
    "coordinates": {
      "lon": 2.89541,
      "lat": 42.69764
    }
  },
  {
    "id": "2990469",
    "name": "Névian",
    "coordinates": {
      "lon": 2.90235,
      "lat": 43.21225
    }
  },
  {
    "id": "2993528",
    "name": "Molières",
    "coordinates": {
      "lon": 1.36364,
      "lat": 44.19332
    }
  },
  {
    "id": "2993746",
    "name": "Mirandol-Bourgnounac",
    "coordinates": {
      "lon": 2.16676,
      "lat": 44.14193
    }
  },
  {
    "id": "2995971",
    "name": "Marcillac-Vallon",
    "coordinates": {
      "lon": 2.46454,
      "lat": 44.47464
    }
  },
  {
    "id": "2997262",
    "name": "Luc-la-Primaube",
    "coordinates": {
      "lon": 2.53552,
      "lat": 44.31439
    }
  },
  {
    "id": "2998661",
    "name": "Lézat-sur-Lèze",
    "coordinates": {
      "lon": 1.34664,
      "lat": 43.27622
    }
  },
  {
    "id": "3000353",
    "name": "Les Matelles",
    "coordinates": {
      "lon": 3.80912,
      "lat": 43.73044
    }
  },
  {
    "id": "3004891",
    "name": "Le Cailar",
    "coordinates": {
      "lon": 4.23616,
      "lat": 43.6759
    }
  },
  {
    "id": "3013153",
    "name": "Horgues",
    "coordinates": {
      "lon": 0.08808,
      "lat": 43.18842
    }
  },
  {
    "id": "3015119",
    "name": "Gallargues-le-Montueux",
    "coordinates": {
      "lon": 4.16667,
      "lat": 43.71667
    }
  },
  {
    "id": "3028720",
    "name": "Capestang",
    "coordinates": {
      "lon": 3.04466,
      "lat": 43.3288
    }
  },
  {
    "id": "3028844",
    "name": "Candillargues",
    "coordinates": {
      "lon": 4.06832,
      "lat": 43.62049
    }
  },
  {
    "id": "3029271",
    "name": "Cadalen",
    "coordinates": {
      "lon": 1.98096,
      "lat": 43.84982
    }
  },
  {
    "id": "3030676",
    "name": "Bouzigues",
    "coordinates": {
      "lon": 3.65761,
      "lat": 43.44843
    }
  },
  {
    "id": "3033574",
    "name": "Belmont-sur-Rance",
    "coordinates": {
      "lon": 2.7543,
      "lat": 43.81812
    }
  },
  {
    "id": "3034713",
    "name": "Bassan",
    "coordinates": {
      "lon": 3.25312,
      "lat": 43.41126
    }
  },
  {
    "id": "3035065",
    "name": "Baraqueville",
    "coordinates": {
      "lon": 2.43184,
      "lat": 44.27655
    }
  },
  {
    "id": "3036052",
    "name": "Aureilhan",
    "coordinates": {
      "lon": 0.09593,
      "lat": 43.24372
    }
  },
  {
    "id": "3037070",
    "name": "Argelès-Gazost",
    "coordinates": {
      "lon": -0.09914,
      "lat": 43.00271
    }
  },
  {
    "id": "3038782",
    "name": "Abeilhan",
    "coordinates": {
      "lon": 3.29488,
      "lat": 43.4499
    }
  },
  {
    "id": "2972665",
    "name": "Thuir",
    "coordinates": {
      "lon": 2.75577,
      "lat": 42.6322
    }
  },
  {
    "id": "2977657",
    "name": "Saint-Paulet-de-Caisson",
    "coordinates": {
      "lon": 4.59748,
      "lat": 44.26276
    }
  },
  {
    "id": "2977683",
    "name": "Saint-Paul-de-Fenouillet",
    "coordinates": {
      "lon": 2.50438,
      "lat": 42.81052
    }
  },
  {
    "id": "2977927",
    "name": "Saint-Nauphary",
    "coordinates": {
      "lon": 1.42839,
      "lat": 43.96462
    }
  },
  {
    "id": "2979174",
    "name": "Saint-Jory",
    "coordinates": {
      "lon": 1.37089,
      "lat": 43.74146
    }
  },
  {
    "id": "2980313",
    "name": "Saint-Estève",
    "coordinates": {
      "lon": 2.84152,
      "lat": 42.7131
    }
  },
  {
    "id": "2980590",
    "name": "Sainte-Foy-de-Peyrolières",
    "coordinates": {
      "lon": 1.14588,
      "lat": 43.49312
    }
  },
  {
    "id": "2981178",
    "name": "Saint-Christol",
    "coordinates": {
      "lon": 4.07998,
      "lat": 43.72806
    }
  },
  {
    "id": "2984719",
    "name": "Quillan",
    "coordinates": {
      "lon": 2.18142,
      "lat": 42.87549
    }
  },
  {
    "id": "2991246",
    "name": "Mudaison",
    "coordinates": {
      "lon": 4.03916,
      "lat": 43.64616
    }
  },
  {
    "id": "2993348",
    "name": "Mondonville",
    "coordinates": {
      "lon": 1.28592,
      "lat": 43.67296
    }
  },
  {
    "id": "2994078",
    "name": "Meynes",
    "coordinates": {
      "lon": 4.56133,
      "lat": 43.88274
    }
  },
  {
    "id": "3009188",
    "name": "Lagardelle-sur-Lèze",
    "coordinates": {
      "lon": 1.38828,
      "lat": 43.41247
    }
  },
  {
    "id": "3012275",
    "name": "Jonquières-Saint-Vincent",
    "coordinates": {
      "lon": 4.56327,
      "lat": 43.82809
    }
  },
  {
    "id": "3014745",
    "name": "Grenade",
    "coordinates": {
      "lon": 1.29282,
      "lat": 43.77128
    }
  },
  {
    "id": "3018671",
    "name": "Ferrals-les-Corbières",
    "coordinates": {
      "lon": 2.72759,
      "lat": 43.14766
    }
  },
  {
    "id": "3019695",
    "name": "Espéraza",
    "coordinates": {
      "lon": 2.22082,
      "lat": 42.93503
    }
  },
  {
    "id": "3020584",
    "name": "Eauze",
    "coordinates": {
      "lon": 0.10061,
      "lat": 43.86071
    }
  },
  {
    "id": "3024463",
    "name": "Codognan",
    "coordinates": {
      "lon": 4.2195,
      "lat": 43.73214
    }
  },
  {
    "id": "3026233",
    "name": "Châteauneuf-du-Pape",
    "coordinates": {
      "lon": 4.83244,
      "lat": 44.05638
    }
  },
  {
    "id": "3028143",
    "name": "Caux",
    "coordinates": {
      "lon": 3.3675,
      "lat": 43.50754
    }
  },
  {
    "id": "3028274",
    "name": "Castillon-du-Gard",
    "coordinates": {
      "lon": 4.55445,
      "lat": 43.96991
    }
  },
  {
    "id": "3028652",
    "name": "Carbonne",
    "coordinates": {
      "lon": 1.2191,
      "lat": 43.29723
    }
  },
  {
    "id": "3028674",
    "name": "Caraman",
    "coordinates": {
      "lon": 1.75765,
      "lat": 43.52994
    }
  },
  {
    "id": "3028797",
    "name": "Canohès",
    "coordinates": {
      "lon": 2.83418,
      "lat": 42.65192
    }
  },
  {
    "id": "3035675",
    "name": "Avignonet-Lauragais",
    "coordinates": {
      "lon": 1.78619,
      "lat": 43.36672
    }
  },
  {
    "id": "3036363",
    "name": "Aubiet",
    "coordinates": {
      "lon": 0.78385,
      "lat": 43.64607
    }
  },
  {
    "id": "3036524",
    "name": "Assas",
    "coordinates": {
      "lon": 3.9,
      "lat": 43.70278
    }
  },
  {
    "id": "2967806",
    "name": "Viviez",
    "coordinates": {
      "lon": 2.21649,
      "lat": 44.55678
    }
  },
  {
    "id": "2968238",
    "name": "Villeveyrac",
    "coordinates": {
      "lon": 3.60616,
      "lat": 43.5009
    }
  },
  {
    "id": "2968544",
    "name": "Villeneuve-lès-Béziers",
    "coordinates": {
      "lon": 3.28003,
      "lat": 43.31491
    }
  },
  {
    "id": "2970669",
    "name": "Varilhes",
    "coordinates": {
      "lon": 1.62813,
      "lat": 43.04572
    }
  },
  {
    "id": "2971054",
    "name": "Valence",
    "coordinates": {
      "lon": 0.89101,
      "lat": 44.10823
    }
  },
  {
    "id": "2972237",
    "name": "Tournefeuille",
    "coordinates": {
      "lon": 1.31922,
      "lat": 43.58872
    }
  },
  {
    "id": "2973393",
    "name": "Tarascon",
    "coordinates": {
      "lon": 4.66028,
      "lat": 43.80583
    }
  },
  {
    "id": "2974775",
    "name": "Servian",
    "coordinates": {
      "lon": 3.30177,
      "lat": 43.42721
    }
  },
  {
    "id": "2977832",
    "name": "Saint-Orens-de-Gameville",
    "coordinates": {
      "lon": 1.53413,
      "lat": 43.55182
    }
  },
  {
    "id": "2985077",
    "name": "Pujaudran",
    "coordinates": {
      "lon": 1.14911,
      "lat": 43.59087
    }
  },
  {
    "id": "2985632",
    "name": "Pradines",
    "coordinates": {
      "lon": 1.40392,
      "lat": 44.47893
    }
  },
  {
    "id": "2988743",
    "name": "Palau-del-Vidre",
    "coordinates": {
      "lon": 2.96106,
      "lat": 42.57237
    }
  },
  {
    "id": "2993726",
    "name": "Miremont",
    "coordinates": {
      "lon": 1.41697,
      "lat": 43.37042
    }
  },
  {
    "id": "2993875",
    "name": "Millau",
    "coordinates": {
      "lon": 3.07848,
      "lat": 44.09973
    }
  },
  {
    "id": "2997407",
    "name": "Loupian",
    "coordinates": {
      "lon": 3.61333,
      "lat": 43.44952
    }
  },
  {
    "id": "3005632",
    "name": "Lavérune",
    "coordinates": {
      "lon": 3.80611,
      "lat": 43.58639
    }
  },
  {
    "id": "3008421",
    "name": "La Loubière",
    "coordinates": {
      "lon": 2.66739,
      "lat": 44.37118
    }
  },
  {
    "id": "3016076",
    "name": "Gigean",
    "coordinates": {
      "lon": 3.71167,
      "lat": 43.50028
    }
  },
  {
    "id": "3018231",
    "name": "Florensac",
    "coordinates": {
      "lon": 3.46712,
      "lat": 43.38417
    }
  },
  {
    "id": "3027888",
    "name": "Ceret",
    "coordinates": {
      "lon": 2.74804,
      "lat": 42.48533
    }
  },
  {
    "id": "3028110",
    "name": "Caveirac",
    "coordinates": {
      "lon": 4.26664,
      "lat": 43.82437
    }
  },
  {
    "id": "3028179",
    "name": "Caunes-Minervois",
    "coordinates": {
      "lon": 2.52679,
      "lat": 43.32771
    }
  },
  {
    "id": "3028351",
    "name": "Castelnaudary",
    "coordinates": {
      "lon": 1.95339,
      "lat": 43.31814
    }
  },
  {
    "id": "3028448",
    "name": "Cassagnes-Bégonhès",
    "coordinates": {
      "lon": 2.53013,
      "lat": 44.16885
    }
  },
  {
    "id": "3035267",
    "name": "Balaruc-le-Vieux",
    "coordinates": {
      "lon": 3.6853,
      "lat": 43.4614
    }
  },
  {
    "id": "3035576",
    "name": "Ayguesvives",
    "coordinates": {
      "lon": 1.59771,
      "lat": 43.43733
    }
  },
  {
    "id": "3038197",
    "name": "Alignan-du-Vent",
    "coordinates": {
      "lon": 3.34148,
      "lat": 43.4702
    }
  },
  {
    "id": "2970839",
    "name": "Valras-Plage",
    "coordinates": {
      "lon": 3.29032,
      "lat": 43.24808
    }
  },
  {
    "id": "2975269",
    "name": "Seilh",
    "coordinates": {
      "lon": 1.35509,
      "lat": 43.69469
    }
  },
  {
    "id": "2976421",
    "name": "Salindres",
    "coordinates": {
      "lon": 4.15767,
      "lat": 44.17154
    }
  },
  {
    "id": "2977382",
    "name": "Saint-Pons-de-Thomières",
    "coordinates": {
      "lon": 2.76667,
      "lat": 43.48333
    }
  },
  {
    "id": "2978938",
    "name": "Sant Llorenç de Cerdans",
    "coordinates": {
      "lon": 2.6132,
      "lat": 42.38473
    }
  },
  {
    "id": "2981173",
    "name": "Saint-Christol-les-Alès",
    "coordinates": {
      "lon": 4.07691,
      "lat": 44.08411
    }
  },
  {
    "id": "2981879",
    "name": "Saint-Alban",
    "coordinates": {
      "lon": 1.4102,
      "lat": 43.6927
    }
  },
  {
    "id": "2983152",
    "name": "Rodilhan",
    "coordinates": {
      "lon": 4.43088,
      "lat": 43.82725
    }
  },
  {
    "id": "2983712",
    "name": "Ribaute-les-Tavernes",
    "coordinates": {
      "lon": 4.08046,
      "lat": 44.03724
    }
  },
  {
    "id": "2984299",
    "name": "Réalmont",
    "coordinates": {
      "lon": 2.18885,
      "lat": 43.77754
    }
  },
  {
    "id": "2984627",
    "name": "Rabastens",
    "coordinates": {
      "lon": 1.72382,
      "lat": 43.82512
    }
  },
  {
    "id": "2984952",
    "name": "Puylaurens",
    "coordinates": {
      "lon": 2.01113,
      "lat": 43.57222
    }
  },
  {
    "id": "2986938",
    "name": "Plaisance",
    "coordinates": {
      "lon": 0.04589,
      "lat": 43.60562
    }
  },
  {
    "id": "2987495",
    "name": "Peyriac-Minervois",
    "coordinates": {
      "lon": 2.56591,
      "lat": 43.29091
    }
  },
  {
    "id": "2989119",
    "name": "Osséja",
    "coordinates": {
      "lon": 1.98192,
      "lat": 42.41383
    }
  },
  {
    "id": "2991046",
    "name": "Nages-et-Solorgues",
    "coordinates": {
      "lon": 4.23003,
      "lat": 43.7906
    }
  },
  {
    "id": "2991115",
    "name": "Mus",
    "coordinates": {
      "lon": 4.20055,
      "lat": 43.73976
    }
  },
  {
    "id": "2992035",
    "name": "Montrodat",
    "coordinates": {
      "lon": 3.3291,
      "lat": 44.55131
    }
  },
  {
    "id": "2992118",
    "name": "Montréal",
    "coordinates": {
      "lon": 0.20217,
      "lat": 43.9502
    }
  },
  {
    "id": "2993876",
    "name": "Millas",
    "coordinates": {
      "lon": 2.69508,
      "lat": 42.69203
    }
  },
  {
    "id": "3005735",
    "name": "Lavaur",
    "coordinates": {
      "lon": 1.81211,
      "lat": 43.69886
    }
  },
  {
    "id": "3007694",
    "name": "Langogne",
    "coordinates": {
      "lon": 3.85539,
      "lat": 44.72726
    }
  },
  {
    "id": "3023772",
    "name": "Corbarieu",
    "coordinates": {
      "lon": 1.36808,
      "lat": 43.94422
    }
  },
  {
    "id": "3028580",
    "name": "Carmaux",
    "coordinates": {
      "lon": 2.1581,
      "lat": 44.04963
    }
  },
  {
    "id": "3028831",
    "name": "Canet",
    "coordinates": {
      "lon": 2.8469,
      "lat": 43.22842
    }
  },
  {
    "id": "3030589",
    "name": "Bram",
    "coordinates": {
      "lon": 2.11341,
      "lat": 43.24376
    }
  },
  {
    "id": "3031941",
    "name": "Boisset",
    "coordinates": {
      "lon": 4.00908,
      "lat": 44.0476
    }
  },
  {
    "id": "2971568",
    "name": "Trouillas",
    "coordinates": {
      "lon": 2.80815,
      "lat": 42.61108
    }
  },
  {
    "id": "2972908",
    "name": "Théza",
    "coordinates": {
      "lon": 2.95103,
      "lat": 42.63906
    }
  },
  {
    "id": "2973385",
    "name": "Tarbes",
    "coordinates": {
      "lon": 0.07139,
      "lat": 43.23407
    }
  },
  {
    "id": "2974273",
    "name": "Sommières",
    "coordinates": {
      "lon": 4.09,
      "lat": 43.78457
    }
  },
  {
    "id": "2976777",
    "name": "Saint-Thibéry",
    "coordinates": {
      "lon": 3.41811,
      "lat": 43.39622
    }
  },
  {
    "id": "2980033",
    "name": "Saint-Gély-du-Fesc",
    "coordinates": {
      "lon": 3.8058,
      "lat": 43.69293
    }
  },
  {
    "id": "2980144",
    "name": "Saint-Félix-Lauragais",
    "coordinates": {
      "lon": 1.88756,
      "lat": 43.44898
    }
  },
  {
    "id": "2983268",
    "name": "Rochefort-du-Gard",
    "coordinates": {
      "lon": 4.68977,
      "lat": 43.97452
    }
  },
  {
    "id": "2988292",
    "name": "Payrin-Augmontel",
    "coordinates": {
      "lon": 2.35406,
      "lat": 43.5445
    }
  },
  {
    "id": "2988742",
    "name": "Palavas-les-Flots",
    "coordinates": {
      "lon": 3.93043,
      "lat": 43.52974
    }
  },
  {
    "id": "2992665",
    "name": "Montescot",
    "coordinates": {
      "lon": 2.93218,
      "lat": 42.60825
    }
  },
  {
    "id": "2992921",
    "name": "Montbeton",
    "coordinates": {
      "lon": 1.28481,
      "lat": 44.01102
    }
  },
  {
    "id": "3004185",
    "name": "Le Fousseret",
    "coordinates": {
      "lon": 1.06585,
      "lat": 43.2818
    }
  },
  {
    "id": "3008825",
    "name": "Laguiole",
    "coordinates": {
      "lon": 2.84705,
      "lat": 44.68449
    }
  },
  {
    "id": "3008981",
    "name": "La Grande-Motte",
    "coordinates": {
      "lon": 4.08482,
      "lat": 43.56076
    }
  },
  {
    "id": "3018713",
    "name": "Fenouillet",
    "coordinates": {
      "lon": 1.392,
      "lat": 43.68041
    }
  },
  {
    "id": "3022079",
    "name": "Cunac",
    "coordinates": {
      "lon": 2.22052,
      "lat": 43.92846
    }
  },
  {
    "id": "3027824",
    "name": "Cers",
    "coordinates": {
      "lon": 3.30474,
      "lat": 43.32345
    }
  },
  {
    "id": "3028346",
    "name": "Castelnau-de-Guers",
    "coordinates": {
      "lon": 3.43786,
      "lat": 43.43505
    }
  },
  {
    "id": "3029254",
    "name": "Caderousse",
    "coordinates": {
      "lon": 4.75672,
      "lat": 44.10327
    }
  },
  {
    "id": "3033435",
    "name": "Bérat",
    "coordinates": {
      "lon": 1.17589,
      "lat": 43.37772
    }
  },
  {
    "id": "3035044",
    "name": "Barbazan-Debat",
    "coordinates": {
      "lon": 0.1206,
      "lat": 43.1958
    }
  },
  {
    "id": "3037693",
    "name": "Andrest",
    "coordinates": {
      "lon": 0.0612,
      "lat": 43.31683
    }
  },
  {
    "id": "2968236",
    "name": "Villevieille",
    "coordinates": {
      "lon": 4.09756,
      "lat": 43.78795
    }
  },
  {
    "id": "2969291",
    "name": "Vielmur-sur-Agout",
    "coordinates": {
      "lon": 2.1,
      "lat": 43.61667
    }
  },
  {
    "id": "2972288",
    "name": "Tourbes",
    "coordinates": {
      "lon": 3.37791,
      "lat": 43.44616
    }
  },
  {
    "id": "2980246",
    "name": "Saint-Etienne-de-Tulmont",
    "coordinates": {
      "lon": 1.46667,
      "lat": 44.05
    }
  },
  {
    "id": "2985076",
    "name": "Pujaut",
    "coordinates": {
      "lon": 4.77466,
      "lat": 44.00479
    }
  },
  {
    "id": "2986933",
    "name": "Plaisance-du-Touch",
    "coordinates": {
      "lon": 1.29645,
      "lat": 43.56554
    }
  },
  {
    "id": "2987500",
    "name": "Peyrestortes",
    "coordinates": {
      "lon": 2.85102,
      "lat": 42.75395
    }
  },
  {
    "id": "2992044",
    "name": "Montricoux",
    "coordinates": {
      "lon": 1.61957,
      "lat": 44.07574
    }
  },
  {
    "id": "2992713",
    "name": "Monteils",
    "coordinates": {
      "lon": 1.57608,
      "lat": 44.16862
    }
  },
  {
    "id": "2992945",
    "name": "Montbazens",
    "coordinates": {
      "lon": 2.2298,
      "lat": 44.47807
    }
  },
  {
    "id": "2993006",
    "name": "Montastruc-la-Conseillère",
    "coordinates": {
      "lon": 1.59019,
      "lat": 43.71982
    }
  },
  {
    "id": "2993947",
    "name": "Miélan",
    "coordinates": {
      "lon": 0.30785,
      "lat": 43.42942
    }
  },
  {
    "id": "2996959",
    "name": "Luz-Saint-Sauveur",
    "coordinates": {
      "lon": -0.00311,
      "lat": 42.87229
    }
  },
  {
    "id": "2998811",
    "name": "Le Vigan",
    "coordinates": {
      "lon": 3.60648,
      "lat": 43.99106
    }
  },
  {
    "id": "3002158",
    "name": "Les Angles",
    "coordinates": {
      "lon": 4.76645,
      "lat": 43.95452
    }
  },
  {
    "id": "3006035",
    "name": "Launaguet",
    "coordinates": {
      "lon": 1.45603,
      "lat": 43.67818
    }
  },
  {
    "id": "3012576",
    "name": "Jacou",
    "coordinates": {
      "lon": 3.91222,
      "lat": 43.66139
    }
  },
  {
    "id": "3016009",
    "name": "Ginestas",
    "coordinates": {
      "lon": 2.87243,
      "lat": 43.26824
    }
  },
  {
    "id": "3016953",
    "name": "Fronton",
    "coordinates": {
      "lon": 1.38852,
      "lat": 43.84033
    }
  },
  {
    "id": "3020135",
    "name": "Entraygues-sur-Truyère",
    "coordinates": {
      "lon": 2.56745,
      "lat": 44.64606
    }
  },
  {
    "id": "3027961",
    "name": "Cendras",
    "coordinates": {
      "lon": 4.06667,
      "lat": 44.15
    }
  },
  {
    "id": "3032492",
    "name": "Bize-Minervois",
    "coordinates": {
      "lon": 2.87078,
      "lat": 43.31843
    }
  },
  {
    "id": "3034109",
    "name": "Beaupuy",
    "coordinates": {
      "lon": 1.55517,
      "lat": 43.64713
    }
  },
  {
    "id": "3036544",
    "name": "Aspiran",
    "coordinates": {
      "lon": 3.45031,
      "lat": 43.56586
    }
  },
  {
    "id": "2968483",
    "name": "Villepinte",
    "coordinates": {
      "lon": 2.08702,
      "lat": 43.28216
    }
  },
  {
    "id": "2979993",
    "name": "Saint-Génis-des-Fontaines",
    "coordinates": {
      "lon": 2.9206,
      "lat": 42.54325
    }
  },
  {
    "id": "2980799",
    "name": "Saint-Drézéry",
    "coordinates": {
      "lon": 3.97809,
      "lat": 43.73203
    }
  },
  {
    "id": "2988339",
    "name": "Paulhan",
    "coordinates": {
      "lon": 3.45954,
      "lat": 43.54046
    }
  },
  {
    "id": "2990809",
    "name": "Nègrepelisse",
    "coordinates": {
      "lon": 1.52129,
      "lat": 44.07516
    }
  },
  {
    "id": "2993586",
    "name": "Moissac",
    "coordinates": {
      "lon": 1.08474,
      "lat": 44.1045
    }
  },
  {
    "id": "2993749",
    "name": "Mirande",
    "coordinates": {
      "lon": 0.40389,
      "lat": 43.51443
    }
  },
  {
    "id": "2994617",
    "name": "Mende",
    "coordinates": {
      "lon": 3.49978,
      "lat": 44.52161
    }
  },
  {
    "id": "2995351",
    "name": "Martres-Tolosane",
    "coordinates": {
      "lon": 1.01104,
      "lat": 43.19917
    }
  },
  {
    "id": "3004294",
    "name": "Le Fauga",
    "coordinates": {
      "lon": 1.29413,
      "lat": 43.39666
    }
  },
  {
    "id": "3005364",
    "name": "Le Barcarès",
    "coordinates": {
      "lon": 3.03656,
      "lat": 42.78773
    }
  },
  {
    "id": "3006205",
    "name": "La Tour-du-Crieu",
    "coordinates": {
      "lon": 1.65402,
      "lat": 43.10385
    }
  },
  {
    "id": "3010566",
    "name": "Lacaune",
    "coordinates": {
      "lon": 2.69184,
      "lat": 43.70891
    }
  },
  {
    "id": "3017255",
    "name": "Fréjairolles",
    "coordinates": {
      "lon": 2.23151,
      "lat": 43.88094
    }
  },
  {
    "id": "3018210",
    "name": "Flourens",
    "coordinates": {
      "lon": 1.56259,
      "lat": 43.59273
    }
  },
  {
    "id": "3018362",
    "name": "Flavin",
    "coordinates": {
      "lon": 2.60513,
      "lat": 44.2889
    }
  },
  {
    "id": "3021664",
    "name": "Decazeville",
    "coordinates": {
      "lon": 2.25091,
      "lat": 44.56045
    }
  },
  {
    "id": "3022986",
    "name": "Cournonterral",
    "coordinates": {
      "lon": 3.72,
      "lat": 43.55889
    }
  },
  {
    "id": "3028908",
    "name": "Campsas",
    "coordinates": {
      "lon": 1.32677,
      "lat": 43.89591
    }
  },
  {
    "id": "3028976",
    "name": "Campan",
    "coordinates": {
      "lon": 0.17741,
      "lat": 43.01676
    }
  },
  {
    "id": "3029229",
    "name": "Cagnac-les-Mines",
    "coordinates": {
      "lon": 2.14131,
      "lat": 43.9852
    }
  },
  {
    "id": "3034382",
    "name": "Beaucaire",
    "coordinates": {
      "lon": 4.64417,
      "lat": 43.80806
    }
  },
  {
    "id": "3035432",
    "name": "Bages",
    "coordinates": {
      "lon": 2.89348,
      "lat": 42.60603
    }
  },
  {
    "id": "3035525",
    "name": "Azille",
    "coordinates": {
      "lon": 2.65935,
      "lat": 43.27843
    }
  },
  {
    "id": "2968690",
    "name": "Vilallonga dels Monts",
    "coordinates": {
      "lon": 2.90434,
      "lat": 42.52557
    }
  },
  {
    "id": "2972248",
    "name": "Tournay",
    "coordinates": {
      "lon": 0.2449,
      "lat": 43.18491
    }
  },
  {
    "id": "2977371",
    "name": "Saint-Porquier",
    "coordinates": {
      "lon": 1.17697,
      "lat": 44.00469
    }
  },
  {
    "id": "2978266",
    "name": "Saint-Martin-Lalande",
    "coordinates": {
      "lon": 2.0183,
      "lat": 43.29999
    }
  },
  {
    "id": "2978596",
    "name": "Saint-Marcel-sur-Aude",
    "coordinates": {
      "lon": 2.93333,
      "lat": 43.25
    }
  },
  {
    "id": "2979261",
    "name": "Saint-Jean-de-Védas",
    "coordinates": {
      "lon": 3.82603,
      "lat": 43.57759
    }
  },
  {
    "id": "2979488",
    "name": "Saint-Hippolyte",
    "coordinates": {
      "lon": 2.96668,
      "lat": 42.78461
    }
  },
  {
    "id": "2981402",
    "name": "Saint-Benoît-de-Carmaux",
    "coordinates": {
      "lon": 2.12911,
      "lat": 44.05203
    }
  },
  {
    "id": "2981746",
    "name": "Saint-André-de-Sangonis",
    "coordinates": {
      "lon": 3.5033,
      "lat": 43.64972
    }
  },
  {
    "id": "2984297",
    "name": "Réalville",
    "coordinates": {
      "lon": 1.47955,
      "lat": 44.11463
    }
  },
  {
    "id": "2986386",
    "name": "Pompertuzat",
    "coordinates": {
      "lon": 1.51669,
      "lat": 43.49078
    }
  },
  {
    "id": "2986434",
    "name": "Pomérols",
    "coordinates": {
      "lon": 3.49944,
      "lat": 43.39139
    }
  },
  {
    "id": "2989208",
    "name": "Orsan",
    "coordinates": {
      "lon": 4.66594,
      "lat": 44.13181
    }
  },
  {
    "id": "2989526",
    "name": "Ondes",
    "coordinates": {
      "lon": 1.30823,
      "lat": 43.7825
    }
  },
  {
    "id": "2989742",
    "name": "Odos",
    "coordinates": {
      "lon": 0.0574,
      "lat": 43.19575
    }
  },
  {
    "id": "2992104",
    "name": "Montredon-Labessonnié",
    "coordinates": {
      "lon": 2.32605,
      "lat": 43.72004
    }
  },
  {
    "id": "2992790",
    "name": "Montcuq",
    "coordinates": {
      "lon": 1.20917,
      "lat": 44.33875
    }
  },
  {
    "id": "2992944",
    "name": "Montbazin",
    "coordinates": {
      "lon": 3.69667,
      "lat": 43.51667
    }
  },
  {
    "id": "2993720",
    "name": "Mirepoix",
    "coordinates": {
      "lon": 1.87367,
      "lat": 43.0884
    }
  },
  {
    "id": "2994446",
    "name": "Mercus-Garrabet",
    "coordinates": {
      "lon": 1.629,
      "lat": 42.8779
    }
  },
  {
    "id": "2995543",
    "name": "Marquefave",
    "coordinates": {
      "lon": 1.24607,
      "lat": 43.31739
    }
  },
  {
    "id": "2996978",
    "name": "Luzech",
    "coordinates": {
      "lon": 1.28675,
      "lat": 44.47825
    }
  },
  {
    "id": "2998879",
    "name": "Vernet",
    "coordinates": {
      "lon": 1.41667,
      "lat": 43.43333
    }
  },
  {
    "id": "3005450",
    "name": "Lavit",
    "coordinates": {
      "lon": 0.9201,
      "lat": 43.95674
    }
  },
  {
    "id": "3006188",
    "name": "La Tour-sur-Orb",
    "coordinates": {
      "lon": 3.14911,
      "lat": 43.65304
    }
  },
  {
    "id": "3009731",
    "name": "Lacroix-Falgarde",
    "coordinates": {
      "lon": 1.40996,
      "lat": 43.50033
    }
  },
  {
    "id": "3011315",
    "name": "La Barthe-de-Neste",
    "coordinates": {
      "lon": 0.38378,
      "lat": 43.07957
    }
  },
  {
    "id": "3014828",
    "name": "Graulhet",
    "coordinates": {
      "lon": 1.98938,
      "lat": 43.76688
    }
  },
  {
    "id": "3020281",
    "name": "Elne",
    "coordinates": {
      "lon": 2.97176,
      "lat": 42.60432
    }
  },
  {
    "id": "3023943",
    "name": "Condom",
    "coordinates": {
      "lon": 0.37199,
      "lat": 43.95816
    }
  },
  {
    "id": "3024745",
    "name": "Claret",
    "coordinates": {
      "lon": 3.90522,
      "lat": 43.86244
    }
  },
  {
    "id": "3025119",
    "name": "Chirac",
    "coordinates": {
      "lon": 3.26652,
      "lat": 44.52289
    }
  },
  {
    "id": "3029080",
    "name": "Calvisson",
    "coordinates": {
      "lon": 4.19626,
      "lat": 43.78696
    }
  },
  {
    "id": "3029213",
    "name": "Cahors",
    "coordinates": {
      "lon": 1.43663,
      "lat": 44.4491
    }
  },
  {
    "id": "3029302",
    "name": "Cabestany",
    "coordinates": {
      "lon": 2.9409,
      "lat": 42.68141
    }
  },
  {
    "id": "3032306",
    "name": "Blauzac",
    "coordinates": {
      "lon": 4.36749,
      "lat": 43.96305
    }
  },
  {
    "id": "3032823",
    "name": "Bezouce",
    "coordinates": {
      "lon": 4.49034,
      "lat": 43.8819
    }
  },
  {
    "id": "3032833",
    "name": "Béziers",
    "coordinates": {
      "lon": 3.21402,
      "lat": 43.34122
    }
  },
  {
    "id": "2970837",
    "name": "Valros",
    "coordinates": {
      "lon": 3.36603,
      "lat": 43.4201
    }
  },
  {
    "id": "2971025",
    "name": "Valergues",
    "coordinates": {
      "lon": 4.06109,
      "lat": 43.66819
    }
  },
  {
    "id": "2977274",
    "name": "Saint-Quentin-la-Poterie",
    "coordinates": {
      "lon": 4.44112,
      "lat": 44.0454
    }
  },
  {
    "id": "2977686",
    "name": "Saint-Paul-Cap-de-Joux",
    "coordinates": {
      "lon": 1.97543,
      "lat": 43.64695
    }
  },
  {
    "id": "2982873",
    "name": "Roquecourbe",
    "coordinates": {
      "lon": 2.29072,
      "lat": 43.66482
    }
  },
  {
    "id": "2985972",
    "name": "Portiragnes",
    "coordinates": {
      "lon": 3.33523,
      "lat": 43.30467
    }
  },
  {
    "id": "2992740",
    "name": "Montech",
    "coordinates": {
      "lon": 1.22979,
      "lat": 43.95744
    }
  },
  {
    "id": "2993230",
    "name": "Mons",
    "coordinates": {
      "lon": 1.57207,
      "lat": 43.6124
    }
  },
  {
    "id": "2999046",
    "name": "Leucate",
    "coordinates": {
      "lon": 3.02944,
      "lat": 42.91056
    }
  },
  {
    "id": "3004359",
    "name": "Lédenon",
    "coordinates": {
      "lon": 4.50956,
      "lat": 43.91554
    }
  },
  {
    "id": "3011312",
    "name": "Labarthe-sur-Lèze",
    "coordinates": {
      "lon": 1.39973,
      "lat": 43.45238
    }
  },
  {
    "id": "3015549",
    "name": "Gourdan-Polignan",
    "coordinates": {
      "lon": 0.57482,
      "lat": 43.07092
    }
  },
  {
    "id": "3016371",
    "name": "Générac",
    "coordinates": {
      "lon": 4.34846,
      "lat": 43.72834
    }
  },
  {
    "id": "3018323",
    "name": "Fleurance",
    "coordinates": {
      "lon": 0.66298,
      "lat": 43.8494
    }
  },
  {
    "id": "3018456",
    "name": "Firmi",
    "coordinates": {
      "lon": 2.30764,
      "lat": 44.54106
    }
  },
  {
    "id": "3027783",
    "name": "Cessenon-sur-Orb",
    "coordinates": {
      "lon": 3.05154,
      "lat": 43.45011
    }
  },
  {
    "id": "3028388",
    "name": "Castelginest",
    "coordinates": {
      "lon": 1.4344,
      "lat": 43.69382
    }
  },
  {
    "id": "3029206",
    "name": "Cahuzac-sur-Vère",
    "coordinates": {
      "lon": 1.91029,
      "lat": 43.9829
    }
  },
  {
    "id": "3029793",
    "name": "Bruguières",
    "coordinates": {
      "lon": 1.40762,
      "lat": 43.7272
    }
  },
  {
    "id": "3033268",
    "name": "Bernis",
    "coordinates": {
      "lon": 4.28619,
      "lat": 43.76557
    }
  },
  {
    "id": "3036281",
    "name": "Auch",
    "coordinates": {
      "lon": 0.58856,
      "lat": 43.64561
    }
  },
  {
    "id": "2968739",
    "name": "Villegailhenc",
    "coordinates": {
      "lon": 2.35479,
      "lat": 43.26901
    }
  },
  {
    "id": "2968900",
    "name": "Villaudric",
    "coordinates": {
      "lon": 1.43166,
      "lat": 43.83044
    }
  },
  {
    "id": "2969389",
    "name": "Vic-la-Gardiole",
    "coordinates": {
      "lon": 3.7975,
      "lat": 43.4908
    }
  },
  {
    "id": "2970941",
    "name": "Valleraugue",
    "coordinates": {
      "lon": 3.64195,
      "lat": 44.08128
    }
  },
  {
    "id": "2974733",
    "name": "Sète",
    "coordinates": {
      "lon": 3.69278,
      "lat": 43.4028
    }
  },
  {
    "id": "2976301",
    "name": "Samatan",
    "coordinates": {
      "lon": 0.93079,
      "lat": 43.4926
    }
  },